,company,href,id,name,location_city,location_country,location_latitude,location_longitude,source,gbfs_href,license_name,license_url
0,['ЗАО «СитиБайк»'],/v2/networks/velobike-moscow,velobike-moscow,Velobike,Moscow,RU,55.75,37.616667,,,,
1,['Gobike A/S'],/v2/networks/bycyklen,bycyklen,Bycyklen,Copenhagen,DK,55.673582,12.564984,,,,
2,['Gobike A/S'],/v2/networks/nu-connect,nu-connect,Nu-Connect,Utrecht,NL,52.117,5.067,,,,
3,['Urban Infrastructure Partner'],/v2/networks/baerum-bysykkel,baerum-bysykkel,Bysykkel,Bærum,NO,59.89455,10.546343,,,,
4,['Gobike A/S'],/v2/networks/bysykkelen,bysykkelen,Bysykkelen,Stavanger,NO,58.969975,5.733107,,,,
5,['Domoblue'],/v2/networks/onroll-a-rua,onroll-a-rua,Onroll,A Rúa,ES,42.392049,-7.114634,,,,
6,['Domoblue'],/v2/networks/onroll-albacete,onroll-albacete,Onroll,Albacete,ES,38.98913,-1.858485,,,,
7,['Domoblue'],/v2/networks/onroll-alhama-de-murcia,onroll-alhama-de-murcia,Onroll,Alhama de Murcia,ES,37.849831,-1.424891,,,,
8,['Domoblue'],/v2/networks/onroll-almunecar,onroll-almunecar,Onroll,Almuñécar,ES,36.735789,-3.688828,,,,
9,['Domoblue'],/v2/networks/onroll-antequera,onroll-antequera,Onroll,Antequera,ES,37.018427,-4.563775,,,,
10,['Domoblue'],/v2/networks/onroll-aranda-de-duero,onroll-aranda-de-duero,Onroll,Aranda de Duero,ES,41.667601,-3.689526,,,,
11,['Domoblue'],/v2/networks/onroll-aranjuez,onroll-aranjuez,Onroll,Aranjuez,ES,40.03097,-3.605742,,,,
12,['Domoblue'],/v2/networks/onroll-badajoz,onroll-badajoz,Onroll,Badajoz,ES,38.873627,-6.99451,,,,
13,['Domoblue'],/v2/networks/onroll-baeza,onroll-baeza,Onroll,Baeza,ES,37.99537,-3.468248,,,,
14,['Domoblue'],/v2/networks/onroll-benidorm,onroll-benidorm,Onroll,Benidorm,ES,38.541251,-0.126808,,,,
15,['Domoblue'],/v2/networks/onroll-blanca,onroll-blanca,Onroll,Blanca,ES,38.178195,-1.372402,,,,
16,['Domoblue'],/v2/networks/onroll-cieza,onroll-cieza,Onroll,Cieza,ES,38.239139,-1.417262,,,,
17,['Domoblue'],/v2/networks/onroll-don-benito-villanueva,onroll-don-benito-villanueva,Onroll,Don Benito - Villanueva,ES,38.964699,-5.829693,,,,
18,['Domoblue'],/v2/networks/onroll-el-campello,onroll-el-campello,Onroll,El Campello,ES,38.419616,-0.398388,,,,
19,['Domoblue'],/v2/networks/onroll-elche,onroll-elche,Onroll,Elche,ES,38.2668,-0.696217,,,,
20,['Domoblue'],/v2/networks/onroll-guadalajara,onroll-guadalajara,Onroll,Guadalajara,ES,40.633021,-3.166097,,,,
21,['Domoblue'],/v2/networks/onroll-jaen,onroll-jaen,Onroll,Jaén,ES,37.777738,-3.790758,,,,
22,['Domoblue'],/v2/networks/onroll-lalin,onroll-lalin,Onroll,Lalín,ES,42.658626,-8.114976,,,,
23,['Domoblue'],/v2/networks/onroll-las-palmas,onroll-las-palmas,Onroll,Las Palmas de Gran Canaria,ES,28.124302,-15.425994,,,,
24,['Domoblue'],/v2/networks/onroll-montilla,onroll-montilla,Onroll,Montilla,ES,37.584151,-4.641359,,,,
25,['Domoblue'],/v2/networks/onroll-novelda,onroll-novelda,Onroll,Novelda,ES,38.386447,-0.767134,,,,
26,['Domoblue'],/v2/networks/onroll-mula,onroll-mula,Onroll,Mula,ES,38.040805,-1.497451,,,,
27,['Domoblue'],/v2/networks/onroll-o-barco,onroll-o-barco,Onroll,O Barco,ES,42.413993,-6.982913,,,,
28,['Domoblue'],/v2/networks/onroll-palencia,onroll-palencia,Onroll,Palencia,ES,42.005639,-4.527022,,,,
29,['Domoblue'],/v2/networks/onroll-paiporta,onroll-paiporta,Onroll,Paiporta,ES,39.427609,-0.416876,,,,
30,['Domoblue'],/v2/networks/onroll-pinto,onroll-pinto,Onroll,Pinto,ES,40.245741,-3.698611,,,,
31,['Domoblue'],/v2/networks/onroll-priego-de-cordoba,onroll-priego-de-cordoba,Onroll,Priego de Córdoba,ES,37.440517,-4.201188,,,,
32,['Domoblue'],/v2/networks/onroll-puerto-lumbreras,onroll-puerto-lumbreras,Onroll,Puerto Lumbreras,ES,37.556652,-1.811508,,,,
33,['Domoblue'],/v2/networks/onroll-puertollano,onroll-puertollano,Onroll,Puertollano,ES,38.691396,-4.107794,,,,
34,['Domoblue'],/v2/networks/onroll-redondela,onroll-redondela,Onroll,Redondela,ES,42.299964,-8.615428,,,,
35,['Domoblue'],/v2/networks/onroll-salamanca,onroll-salamanca,Onroll,Salamanca,ES,40.966771,-5.665432,,,,
36,['Domoblue'],/v2/networks/onroll-san-javier,onroll-san-javier,Onroll,San Javier,ES,37.783704,-0.808097,,,,
37,['Domoblue'],/v2/networks/onroll-san-pedro,onroll-san-pedro,Onroll,San Pedro del Pinatar,ES,37.827578,-0.783944,,,,
38,['Domoblue'],/v2/networks/onroll-sant-joan,onroll-sant-joan,Onroll,Sant Joan d'Alacant,ES,38.399839,-0.434522,,,,
39,['Domoblue'],/v2/networks/onroll-segovia,onroll-segovia,Onroll,Segovia,ES,40.941941,-4.112397,,,,
40,['Domoblue'],/v2/networks/onroll-soria,onroll-soria,Onroll,Soria,ES,41.763653,-2.467069,,,,
41,['Domoblue'],/v2/networks/onroll-talavera,onroll-talavera,Onroll,Talavera de la Reina,ES,39.961829,-4.830319,,,,
42,['Domoblue'],/v2/networks/onroll-ubeda,onroll-ubeda,Onroll,Úbeda,ES,38.011463,-3.373276,,,,
43,['Domoblue'],/v2/networks/onroll-universidad-de-granada,onroll-universidad-de-granada,Onroll,"Universidad de Granada, Granada",ES,37.182438,-3.604219,,,,
44,['Comunicare S.r.l.'],/v2/networks/bicincitta-siena,bicincitta-siena,Bicincittà,Siena,IT,43.3186,11.3306,http://www.bicincitta.com/frmLeStazioni.aspx?ID=202,,,
45,['Domoblue'],/v2/networks/onroll-via-verde,onroll-via-verde,Onroll Via Verde,Noia - Portosin - Porto do Son,ES,42.768127,-8.908513,,,,
46,['Domoblue'],/v2/networks/onroll-villaquilambre,onroll-villaquilambre,Onroll,Villaquilambre,ES,42.642358,-5.535311,,,,
47,['Domoblue'],/v2/networks/onroll-vinaros,onroll-vinaros,Onroll,Vinaròs,ES,40.468258,0.466972,,,,
48,['Cyclopolis Systems'],/v2/networks/cyclopolis-maroussi,cyclopolis-maroussi,Cyclopolis,Maroussi,GR,38.0568722388,23.8083299536,,,,
49,"['Groundwork', 'Slough Borough Council', 'ITS']",/v2/networks/cycle-hire-slough,cycle-hire-slough,Cycle Hire,Slough,GB,51.51135,-0.591562,,,,
50,['Cyclopolis Systems'],/v2/networks/cyclopolis-nafplio,cyclopolis-nafplio,Cyclopolis,Maroussi,GR,37.5639397319,22.8093402872,,,,
51,['Comunicare S.r.l.'],/v2/networks/bicincitta-parco-dei-colli-di-bergamo,bicincitta-parco-dei-colli-di-bergamo,Bicincittà,Parco dei Colli di Bergamo,IT,45.72295637032245,9.649230073016383,http://www.bicincitta.com/frmLeStazioni.aspx?ID=203,,,
52,['Cyclopolis Systems'],/v2/networks/cyclopolis-aigialeia,cyclopolis-aigialeia,Cyclopolis,Maroussi,GR,38.2511101325,22.0821570196,,,,
53,['Cyclopolis Systems'],/v2/networks/cyclopolis-marathon,cyclopolis-marathon,Cyclopolis,Marathon,GR,38.0855680022,23.9776389963,,,,
54,['Comunicare S.r.l.'],/v2/networks/bicincitta-mantova,bicincitta-mantova,Bicincittà,Mantova,IT,45.15866370764634,10.783718973016335,http://www.bicincitta.com/frmLeStazioni.aspx?ID=204,,,
55,['Cyclopolis Systems'],/v2/networks/cyclopolis-neasmyrni,cyclopolis-neasmyrni,Cyclopolis,Νea Smyrni,GR,37.9381,23.7126,,,,
56,['Cyclopolis Systems'],/v2/networks/cyclopolis-moschatotavros,cyclopolis-moschatotavros,Cyclopolis,Μoschato-Tavros,GR,37.9538991434,23.6824746661,,,,
57,['Cyclopolis Systems'],/v2/networks/cyclopolis-arxaiaolympia,cyclopolis-arxaiaolympia,Cyclopolis,Αrxaia Olympia,GR,37.6419700934,21.6247265179,,,,
58,['Cyclopolis Systems'],/v2/networks/cyclopolis-kiato,cyclopolis-kiato,Cyclopolis,Kιato,GR,38.0132674508,22.7493819902,,,,
59,['Comunicare S.r.l.'],/v2/networks/bicincitta-assemini,bicincitta-assemini,Bicincittà,Assemini,IT,39.28956306007679,9.006601555294765,http://www.bicincitta.com/frmLeStazioni.aspx?ID=205,,,
60,['Cyclopolis Systems'],/v2/networks/cyclopolis-rhodes,cyclopolis-rhodes,Cyclopolis,Rhodes,GR,36.4509118,28.2246966,,,,
61,['Cyclopolis Systems'],/v2/networks/cyclopolis-florina,cyclopolis-florina,Cyclopolis,Florina,GR,40.8016111,21.4245222,,,,
62,['Comunicare S.r.l.'],/v2/networks/bicincitta-tortoli,bicincitta-tortoli,Bicincittà,Tortolì,IT,39.92664489852196,9.654953570777934,http://www.bicincitta.com/frmLeStazioni.aspx?ID=206,,,
63,['Cyclopolis Systems'],/v2/networks/cyclopolis-limnos,cyclopolis-limnos,Cyclopolis,Limnos,GR,39.8747861,25.0586722,,,,
64,['Comunicare S.r.l.'],/v2/networks/bicincitta-gaeta,bicincitta-gaeta,Bicincittà,Gaeta,IT,41.209620965538036,13.584335125656139,http://www.bicincitta.com/frmLeStazioni.aspx?ID=207,,,
65,['Comunicare S.r.l.'],/v2/networks/bicincitta-borgarello,bicincitta-borgarello,Bicincittà,Borgarello,IT,45.23963753440171,9.136150475640875,http://www.bicincitta.com/frmLeStazioni.aspx?ID=208,,,
66,['Comunicare S.r.l.'],/v2/networks/bicincitta-pizzighettone-formigara,bicincitta-pizzighettone-formigara,Bicincittà,Pizzighettone e Formigara,IT,45.186748819167434,9.778087948479424,http://www.bicincitta.com/frmLeStazioni.aspx?ID=209,,,
67,['The National Transport Authority'],/v2/networks/cork,cork,Coca-Cola Zero® Bikes,Cork,IE,51.893604,-8.494174,,,,
68,['The National Transport Authority'],/v2/networks/limerick,limerick,Coca-Cola Zero® Bikes,Limerick,IE,52.668746,-8.627809,,,,
69,['BTS Group Holdings'],/v2/networks/punpunbikeshare,punpunbikeshare,Pun Pun Bike Share,Bangkok,TH,13.75,100.516667,,,,
70,['The National Transport Authority'],/v2/networks/galway,galway,Coca-Cola Zero® Bikes,Galway,IE,53.2783491544,-9.05069143207,,,,
71,['Bike U Sp. z o.o.'],/v2/networks/bbbike,bbbike,BBBike,Bielsko-Biała,PL,49.8225,19.044444,,,,
72,['Comunicare S.r.l.'],/v2/networks/bicincitta-montecatini-terme,bicincitta-montecatini-terme,Bicincittà,Montecatini Terme,IT,43.88362791665083,10.764385656591799,http://www.bicincitta.com/frmLeStazioni.aspx?ID=210,,,
73,['Bike U Sp. z o.o.'],/v2/networks/bikeu-bra,bikeu-bra,Bydgoski rower aglomeracyjny,Bydgoszcz,PL,53.12193,18.00038,,,,
74,"['PBSC', 'Serco Group plc']",/v2/networks/santander-cycles,santander-cycles,Santander Cycles,London,GB,51.51121389999999,-0.1198244,,,,
75,"['PBSC', 'Alta Bicycle Share, Inc']",/v2/networks/we-cycle,we-cycle,WE-cycle,"Aspen, CO",US,39.194951,-106.837002,,https://asp.publicbikesystem.net/ube/gbfs/v1/gbfs.json,,
76,['Comunicare S.r.l.'],/v2/networks/bicincitta-carrara,bicincitta-carrara,Bicincittà,Carrara,IT,44.07731805550891,10.097172450401331,http://www.bicincitta.com/frmLeStazioni.aspx?ID=211,,,
77,"['PBSC', 'Alta Bicycle Share, Inc']",/v2/networks/wowcycle-reykjavik,wowcycle-reykjavik,WOW Citybike,Reykjavík,IS,64.128288,-21.827774,,,,
78,['Transparenzportal Hamburg'],/v2/networks/stadtrad-hamburg,stadtrad-hamburg,StadtRAD Hamburg',Hamburg,DE,53.57532,10.01534,,,Data licence Germany – attribution – version 2.0,https://www.govdata.de/dl-de/by-2-0
79,['Comunicare S.r.l.'],/v2/networks/tigullionbike,tigullionbike,Tigullionbike,Sestri Levante - Lavagna,IT,44.272554,9.395714,http://www.bicincitta.com/frmLeStazioni.aspx?ID=80,,,
80,['Comunicare S.r.l.'],/v2/networks/arbike,arbike,ARbike,Arezzo,IT,43.473333,11.87,http://www.bicincitta.com/frmLeStazioni.aspx?ID=84,,,
81,"['Velobike.kz, LLP', 'Smoove']",/v2/networks/velobike,velobike,Velobike,Astana,KZ,51.166667,71.416667,,,,
82,['Smovengo'],/v2/networks/velib,velib,Velib' Métropôle,Paris,FR,48.856614,2.3522219,,,,
83,['Comunicare S.r.l.'],/v2/networks/ascoli-piceno,ascoli-piceno,Ascoli Piceno,Ascoli Piceno,IT,42.85,13.583333,http://www.bicincitta.com/frmLeStazioni.aspx?ID=73,,,
84,['Comunicare S.r.l.'],/v2/networks/bigi,bigi,BiGi,Bergamo,IT,45.695,9.67,http://www.bicincitta.com/frmLeStazioni.aspx?ID=133,,,
85,['ICNITA S.L.'],/v2/networks/girocleta,girocleta,Girocleta,Girona,ES,41.9794005,2.8214264,,,,
86,['Comunicare S.r.l.'],/v2/networks/alba,alba,Alba,Alba,IT,44.716667,8.083333,http://www.bicincitta.com/frmLeStazioni.aspx?ID=139,,,
87,['ClearChannel'],/v2/networks/bikemi,bikemi,BikeMi,Milano,IT,45.4654542,9.186516,,,,
88,['Comunicare S.r.l.'],/v2/networks/biella,biella,Biella,Biella,IT,45.5775,8.051111,http://www.bicincitta.com/frmLeStazioni.aspx?ID=112,,,
89,['Comunicare S.r.l.'],/v2/networks/chivasso,chivasso,Chivasso,Chivasso,IT,45.189765,7.888935,http://www.bicincitta.com/frmLeStazioni.aspx?ID=201,,,
90,['ClearChannel'],/v2/networks/bizi,bizi,Bizi,Zaragoza,ES,41.6487908,-0.8895811,,,,
91,['ClearChannel'],/v2/networks/ecobici,ecobici,EcoBici,Cd de México,MX,19.4326077,-99.133208,,,,
92,['Comunicare S.r.l.'],/v2/networks/bici-in-busto,bici-in-busto,Bici in Busto,Busto Arsizio,IT,45.610555,8.852062,http://www.bicincitta.com/frmLeStazioni.aspx?ID=66,,,
93,['ClearChannel'],/v2/networks/velo-antwerpen,velo-antwerpen,Velo Antwerpen,Antwerpen,BE,51.216667,4.4,,,,
94,['Comunicare S.r.l.'],/v2/networks/cuneo,cuneo,Cuneo,Cuneo,IT,44.384238,7.541428,http://www.bicincitta.com/frmLeStazioni.aspx?ID=39,,,
95,['ClearChannel'],/v2/networks/malmobybike,malmobybike,Malmö by bike,Malmö,SE,55.605,13.0038,,,,
96,['ClearChannel'],/v2/networks/bicilascondes,bicilascondes,Bici las Condes,Las Condes,CL,-33.401944,-70.55,,,,
97,"Empresa Municipal de Transportes de Madrid, S.A.",/v2/networks/bicimad,bicimad,BiciMAD,Madrid,ES,40.4168,-3.7038,,,,
98,"['Brainbox Technology', 'Smoove SAS']",/v2/networks/easybike-didymoteicho,easybike-didymoteicho,EasyBike,Didymoteicho,GR,41.3502539849,26.4972960949,,,,
99,['Comunicare S.r.l.'],/v2/networks/free-bike-sharing,free-bike-sharing,FRee Bike sharing,Frosinone,IT,41.645081,13.342123,http://www.bicincitta.com/frmLeStazioni.aspx?ID=53,,,
100,"['Brainbox Technology', 'Smoove SAS']",/v2/networks/easybike-glyfada,easybike-glyfada,EasyBike,Glyfada,GR,37.8715809825,23.7355544376,,,,
101,"['Brainbox Technology', 'Smoove SAS']",/v2/networks/easybike-igoumenitsa,easybike-igoumenitsa,EasyBike,Igoumenitsa,GR,39.5005770633,20.2635206985,,,,
102,['Comunicare S.r.l.'],/v2/networks/lecce,lecce,lecce,Lecce,IT,40.35040350928062,18.177824020385742,http://www.bicincitta.com/frmLeStazioni.aspx?ID=159,,,
103,"['Brainbox Technology', 'Smoove SAS']",/v2/networks/easybike-ioannina,easybike-ioannina,EasyBike,Ioannina,GR,39.6639818,20.8522784,,,,
104,"['Brainbox Technology', 'Smoove SAS']",/v2/networks/easybike-karditsa,easybike-karditsa,EasyBike,Karditsa,GR,39.3634604,21.9211192,,,,
105,['Comunicare S.r.l.'],/v2/networks/manerba-in-bici,manerba-in-bici,Manerba in Bici,Manerba del Garda,IT,45.561179,10.559406,http://www.bicincitta.com/frmLeStazioni.aspx?ID=102,,,
106,"['Brainbox Technology', 'Smoove SAS']",/v2/networks/easybike-kavala,easybike-kavala,EasyBike,Kavala,GR,40.9369068,24.4122164,,,,
107,"['Brainbox Technology', 'Smoove SAS']",/v2/networks/easybike-kinouria,easybike-kinouria,EasyBike,Kinouria,GR,37.1476704305,22.8933729935,,,,
108,"['Brainbox Technology', 'Smoove SAS']",/v2/networks/easybike-komotini,easybike-komotini,EasyBike,Komotini,GR,41.117833,25.4041307,,,,
109,"['Brainbox Technology', 'Smoove SAS']",/v2/networks/easybike-patra,easybike-patra,EasyBike,Patra,GR,38.2410966371,21.7259683418,,,,
110,['Comunicare S.r.l.'],/v2/networks/mar-e-bici,mar-e-bici,Mar e Bici,Marciana Marina,IT,42.805855,10.196514,http://www.bicincitta.com/frmLeStazioni.aspx?ID=90,,,
111,"['Brainbox Technology', 'Smoove SAS']",/v2/networks/easybike-rethymno,easybike-rethymno,EasyBike,Rethymno,GR,35.3667571777,24.4832845736,,,,
112,"['Brainbox Technology', 'Smoove SAS']",/v2/networks/easybike-samos,easybike-samos,EasyBike,Samos,GR,37.754065919,26.9787850189,,,,
113,['Comunicare S.r.l.'],/v2/networks/novara,novara,Novara,Novara,IT,45.44574,8.622165,http://www.bicincitta.com/frmLeStazioni.aspx?ID=131,,,
114,"['Brainbox Technology', 'Smoove SAS']",/v2/networks/easybike-nicosia,easybike-nicosia,EasyBike,Nicosia,CY,35.1739302,33.364726,,,,
115,"['Brainbox Technology', 'Smoove SAS']",/v2/networks/easybike-mani,easybike-mani,EasyBike,Mani,GR,41.4097472,26.4024952,,,,
116,"['Brainbox Technology', 'Smoove SAS']",/v2/networks/easybike-irakleio,easybike-irakleio,EasyBike,Irakleio,GR,35.338735,25.144213,,,,
117,"['Brainbox Technology', 'Smoove SAS']",/v2/networks/thessbike,thessbike,ThessBike,Thessaloniki,GR,40.6403167,22.9352716,,,,
118,"['Brainbox Technology', 'Smoove SAS']",/v2/networks/athens-bikes,athens-bikes,AthensBikes,Athens,GR,37.9838,23.7275,,,,
119,['Comunicare S.r.l.'],/v2/networks/goodbike,goodbike,GoodBike,Padova,IT,45.4064349,11.8767611,http://www.goodbikepadova.it/frmLeStazioni.aspx?ID=59,,,
120,['PegBike'],/v2/networks/ciclosampa,ciclosampa,CicloSampa,São Paulo,BR,-23.55,-46.6333,,,,
121,['Tuimil S.A.'],/v2/networks/bicicorunha,bicicorunha,Bicicoruña,A Coruña,ES,43.3623,-8.4115,,,,
122,['Tuimil S.A.'],/v2/networks/bici-ferrol-terra,bici-ferrol-terra,BiciFerrolTerra,Ferrol - Narón,ES,43.4896,-8.2193,,,,
123,['Social Bicycles Inc.'],/v2/networks/curtin-bike-share,curtin-bike-share,Curtin Bike Share,"Curtin University, Perth, WA",AU,-32.0034172153127,115.89431270956993,,http://curtinbikeshare.com/opendata/gbfs.json,,
124,['Social Bicycles Inc.'],/v2/networks/monash-bikeshare,monash-bikeshare,Monash BikeShare,"Melbourne, AU",AU,-37.91238410208696,145.1362281292677,,https://monashbikeshare.com/opendata/gbfs.json,,
125,['Comunicare S.r.l.'],/v2/networks/mimuovofe,mimuovofe,Mi Muovo in Bici,Ferrara,IT,44.8350382,11.6240562,http://www.mimuovoinbici.it/frmLeStazioni.aspx?ID=142,,,
126,"['Motivate International, Inc.', 'PBSC Urban Solutions', 'BIXI Montréal']",/v2/networks/bixi-montreal,bixi-montreal,Bixi,"Montréal, QC",CA,45.508693,-73.553928,,https://api-core.bixi.com/gbfs/gbfs.json,,
127,['Comunicare S.r.l.'],/v2/networks/parma,parma,Mi Muovo in Bici,Parma,IT,44.801485,10.3279036,http://www.mimuovoinbici.it/frmLeStazioni.aspx?ID=58,,,
128,"['Motivate International, Inc.', 'PBSC Urban Solutions']",/v2/networks/bixi-toronto,bixi-toronto,Bike Share Toronto,"Toronto, ON",CA,43.653226,-79.3831843,,https://tor.publicbikesystem.net/ube/gbfs/v1/,,
129,['Social Bicycles Inc.'],/v2/networks/sobi-hamilton,sobi-hamilton,SoBi,"Hamilton, ON",CA,43.25643601915583,-79.86929655075073,,https://hamilton.socialbicycles.com/opendata/gbfs.json,,
130,"['CycleHop, LLC', 'Social Bicycles Inc.']",/v2/networks/velogo,velogo,VeloGO,"Ottawa, ON",CA,45.4285325522342,-75.6970576741095,,http://velogo.ca/opendata/gbfs.json,,
131,"['Clean Energy Coalition', 'BCycle, LLC']",/v2/networks/arborbike,arborbike,ArborBike,"Ann Arbor, MI",US,42.27853,-83.74536,,https://gbfs.bcycle.com/bcycle_arborbike/gbfs.json,,
132,['Comunicare S.r.l.'],/v2/networks/pavia-in-bici,pavia-in-bici,Pavia in bici,Pavia,IT,45.1847248,9.1582069,http://www.bicincitta.com/frmLeStazioni.aspx?ID=45,,,
133,['Comunicare S.r.l.'],/v2/networks/bici-perugia,bici-perugia,Bici Perugia,Perugia,IT,43.1107168,12.3908279,http://www.bicincitta.com/frmLeStazioni.aspx?ID=122,,,
134,"['BCycle, LLC']",/v2/networks/austin,austin,Austin B-cycle,"Austin, TX",US,30.26408,-97.74355,,https://gbfs.bcycle.com/bcycle_austin/gbfs.json,,
135,"['Motivate International, Inc', 'PBSC']",/v2/networks/bike-chattanooga,bike-chattanooga,Bike Chattanooga,"Chattanooga, TN",US,35.0456297,-85.3096801,,https://chat.publicbikesystem.net/ube/gbfs/v1/,,
136,['Comunicare S.r.l.'],/v2/networks/piacenza,piacenza,Mi Muovo in Bici,Piacenza,IT,45.0473754,9.6865813,http://www.mimuovoinbici.it/frmLeStazioni.aspx?ID=148,,,
137,['Comunicare S.r.l.'],/v2/networks/pinerolo,pinerolo,Pinerolo,Pinerolo,IT,44.8850256,7.3499953,http://www.bicincitta.com/frmLeStazioni.aspx?ID=71,,,
138,"['Portland Bureau of Transportation (PBOT)', 'Motivate International, Inc', 'Social Bicycles Inc.']",/v2/networks/biketown,biketown,BIKETOWN,"Portland, OR",US,45.52175423291714,-122.68107935786247,,http://biketownpdx.socialbicycles.com/opendata/gbfs.json,,
139,['Comunicare S.r.l.'],/v2/networks/reggio-emilia,reggio-emilia,Mi Muovo in Bici,Reggio Emilia,IT,44.6989932,10.6296859,http://www.mimuovoinbici.it/frmLeStazioni.aspx?ID=155,,,
140,"['CycleHop, LLC', 'Social Bicycles Inc.']",/v2/networks/britebikes,britebikes,BRiteBikes,"San Ramon, CA",US,37.759444753878,-121.955134881881,,http://britebikes.socialbicycles.com/opendata/gbfs.json,,
141,"['ValleyRide', 'Social Bicycles Inc.']",/v2/networks/boise-greenbike,boise-greenbike,Boise GreenBike,"Boise, ID",US,43.6153060610528,-116.201761349309,,http://boise.greenbike.com/opendata/gbfs.json,,
142,"['BCycle, LLC']",/v2/networks/boulder,boulder,Boulder B-cycle,"Boulder, CO",US,40.00811,-105.26385,,https://gbfs.bcycle.com/bcycle_boulder/gbfs.json,,
143,"['CycleHop, LLC', 'Social Bicycles Inc.']",/v2/networks/breeze-bike-share,breeze-bike-share,Breeze Bike Share,"Santa Monica, CA",US,34.01780925008178,-118.4965717792511,,http://santamonicabikeshare.com/opendata/gbfs.json,,
144,['Comunicare S.r.l.'],/v2/networks/rimini,rimini,Mi Muovo in Bici,Rimini,IT,44.0570817,12.5646003,http://www.mimuovoinbici.it/frmLeStazioni.aspx?ID=149,,,
145,"['BCycle, LLC']",/v2/networks/broward,broward,Broward B-cycle,"Fort Lauderdale, FL",US,26.12026,-80.14819,,https://gbfs.bcycle.com/bcycle_broward/gbfs.json,,
146,"['BCycle, LLC']",/v2/networks/bublr-bikes,bublr-bikes,Bublr Bikes,"Milwaukee, WI",US,43.0369,-87.89667,,https://gbfs.bcycle.com/bcycle_bublr/gbfs.json,,
147,"['Shared Mobility Inc.', 'Social Bicycles Inc.']",/v2/networks/reddy-bike-share,reddy-bike-share,Reddy Bike Share,"Buffalo, NY",US,42.89373841865211,-78.8718044757843,,https://reddybikeshare.socialbicycles.com/opendata/gbfs.json,,
148,"['Motivate International, Inc.', 'PBSC Urban Solutions']",/v2/networks/capital-bikeshare,capital-bikeshare,Capital BikeShare,"Washington, DC",US,38.8967584,-77.03701629999999,,https://gbfs.capitalbikeshare.com/gbfs/gbfs.json,,
149,"['BCycle, LLC']",/v2/networks/charlotte,charlotte,Charlotte B-cycle,"Charlotte, NC",US,35.22716,-80.83855,,https://gbfs.bcycle.com/bcycle_charlotte/gbfs.json,,
150,['Comunicare S.r.l.'],/v2/networks/saluzzo,saluzzo,Saluzzo,Saluzzo,IT,44.6445404,7.492735499999999,http://www.bicincitta.com/frmLeStazioni.aspx?ID=51,,,
151,"['BCycle, LLC']",/v2/networks/cincy-red-bike,cincy-red-bike,Cincy Red Bike,"Cincinnati, OH",US,39.10138,-84.51217,,https://gbfs.bcycle.com/bcycle_cincyredbike/gbfs.json,,
152,['Comunicare S.r.l.'],/v2/networks/savigliano,savigliano,Savigliano,Savigliano,IT,44.6470327,7.662463499999999,http://www.bicincitta.com/frmLeStazioni.aspx?ID=52,,,
153,"['NYC Bike Share, LLC', 'Motivate International, Inc.', 'PBSC Urban Solutions']",/v2/networks/citi-bike-nyc,citi-bike-nyc,Citi Bike,"New York, NY",US,40.7143528,-74.00597309999999,,https://gbfs.citibikenyc.com/gbfs/gbfs.json,,
154,"['CycleHop, LLC', 'Social Bicycles Inc.']",/v2/networks/coast-bike-share,coast-bike-share,Coast Bike Share,"Tampa, FL",US,27.9627193250593,-82.438056400783,,https://coast.socialbicycles.com/opendata/gbfs.json,,
155,['Comunicare S.r.l.'],/v2/networks/terni,terni,Terni,Terni,IT,42.5636168,12.6426604,http://www.bicincitta.com/frmLeStazioni.aspx?ID=134,,,
156,"['Motivate International, Inc.', 'PBSC Urban Solutions']",/v2/networks/cogo,cogo,CoGo,"Columbus, OH",US,39.983333,-82.983333,,https://gbfs.cogobikeshare.com/gbfs/gbfs.json,,
157,"['BCycle, LLC']",/v2/networks/denver,denver,Denver B-cycle,"Denver, CO",US,39.72055,-104.95253,,https://gbfs.bcycle.com/bcycle_denver/gbfs.json,,
158,"['Motivate International, Inc.', 'PBSC Urban Solutions']",/v2/networks/divvy,divvy,Divvy,"Chicago, IL",US,41.8781136,-87.6297982,,https://gbfs.divvybikes.com/gbfs/gbfs.json,,
159,['Comunicare S.r.l.'],/v2/networks/tirano-in-bici,tirano-in-bici,Tirano in Bici,Tirano,IT,46.216168,10.1696056,http://www.bicincitta.com/frmLeStazioni.aspx?ID=141,,,
160,"['BCycle, LLC']",/v2/networks/elpaso,elpaso,El Paso B-cycle,"El Paso, TX",US,31.76148,-106.48507,,https://gbfs.bcycle.com/bcycle_elpaso/gbfs.json,,
161,"['BCycle, LLC']",/v2/networks/fortworth,fortworth,Fort Worth Bike Sharing,"Fort Worth, TX",US,32.7516,-97.32888,,https://gbfs.bcycle.com/bcycle_fortworth/gbfs.json,,
162,['Comunicare S.r.l.'],/v2/networks/udine,udine,Udine,Udine,IT,46.0710668,13.2345794,http://www.bicincitta.com/frmLeStazioni.aspx?ID=126,,,
163,"['BCycle, LLC']",/v2/networks/greatrides,greatrides,Great Rides Bike Share,"Fargo, ND",US,46.89248,-96.80095,,https://gbfs.bcycle.com/bcycle_greatrides/gbfs.json,,
164,"['BCycle, LLC']",/v2/networks/greenbikeslc,greenbikeslc,GREENbike,Salt Lake City,US,40.76745,-111.88736,,https://gbfs.bcycle.com/bcycle_greenbikeslc/gbfs.json,,
165,"['CycleHop, LLC', 'Social Bicycles Inc.']",/v2/networks/grid-bike-share,grid-bike-share,Grid Bike Share,"Phoenix, AZ",US,33.4591031356657,-112.074010667085,,https://grid.socialbicycles.com/opendata/gbfs.json,,
166,"['BCycle, LLC']",/v2/networks/omaha,omaha,Heartland B-cycle,"Omaha, NE",US,41.25832,-96.00853,,https://gbfs.bcycle.com/bcycle_heartland/gbfs.json,,
167,"['BCycle, LLC']",/v2/networks/houston,houston,Houston B-cycle,"Houston, TX",US,29.75983,-95.36949,,https://gbfs.bcycle.com/bcycle_houston/gbfs.json,,
168,"['Motivate International, Inc.', 'PBSC Urban Solutions']",/v2/networks/blue-bikes,blue-bikes,Blue Bikes,"Boston, MA",US,42.3584308,-71.0597732,,https://gbfs.bluebikes.com/gbfs/gbfs.json,,
169,['Comunicare S.r.l.'],/v2/networks/ustica,ustica,Ustica,Ustica,IT,38.7031179,13.1682675,http://www.bicincitta.com/frmLeStazioni.aspx?ID=138,,,
170,"['City of Philadelphia', 'Bicycle Transit Systems', 'BCycle, LLC']",/v2/networks/indego,indego,Indego,"Philadelphia, PA",US,39.95378,-75.16374,,https://gbfs.bcycle.com/bcycle_indego/gbfs.json,,
171,"['BCycle, LLC']",/v2/networks/indiana-pacers-bikeshare,indiana-pacers-bikeshare,Indiana Pacers Bikeshare,"Indianapolis, IN",US,39.76593,-86.16216,,https://gbfs.bcycle.com/bcycle_pacersbikeshare/gbfs.json,,
172,"['CycleHop, LLC', 'Social Bicycles Inc.']",/v2/networks/juice-bike-share,juice-bike-share,Juice,"Orlando, FL",US,28.536663311743688,-81.37922197580338,,https://juicebikeshare.com/opendata/gbfs.json,,
173,['Comunicare S.r.l.'],/v2/networks/bici-co,bici-co,BICI&CO,Como,IT,45.8080597,9.0851765,http://www.bicincitta.com/frmLeStazioni.aspx?ID=157,,,
174,"['BCycle, LLC']",/v2/networks/kansascity,kansascity,B-cycle,"Kansas City, MO",US,39.0999,-94.5857,,https://gbfs.bcycle.com/bcycle_kc/gbfs.json,,
175,"['BCycle, LLC']",/v2/networks/linkdayton,linkdayton,Link,"Dayton, OH",US,39.75626,-84.21119,,https://gbfs.bcycle.com/bcycle_linkdayton/gbfs.json,,
176,"['BCycle, LLC']",/v2/networks/madison,madison,B-cycle,"Madison, WI",US,43.07571,-89.38527,,https://gbfs.bcycle.com/bcycle_madison/gbfs.json,,
177,"['Los Angeles County Metropolitan Transportation Authority (Metro)', 'Bicycle Transit Systems', 'BCycle, LLC']",/v2/networks/metro-bike-share,metro-bike-share,Metro Bike Share,"Los Angeles, CA",US,34.04855,-118.25905,,https://gbfs.bcycle.com/bcycle_lametro/gbfs.json,,
178,"['Mountain Rides', 'Social Bicycles Inc.']",/v2/networks/mountain-rides-bike-share,mountain-rides-bike-share,Mountain Rides Bike Share,"Ketchum / Sun Valley, ID",US,43.5194695168239,-114.317415758737,,http://mrbikeshare.org/opendata/gbfs.json,,
179,['Nice Ride Minnesota'],/v2/networks/nice-ride,nice-ride,Nice Ride,"Minneapolis, MN",US,44.983334,-93.26666999999999,,https://api-core.niceridemn.org/gbfs/gbfs.json,,
180,['Comunicare S.r.l.'],/v2/networks/speziainbici,speziainbici,Speziainbici,La Spezia,IT,44.1024504,9.824082599999999,http://www.bicincitta.com/frmLeStazioni.aspx?ID=137,,,
181,"['BCycle, LLC']",/v2/networks/sanantonio,sanantonio,SWell Cycle,"San Antonio, TX",US,29.43701,-98.48236,,https://gbfs.bcycle.com/bcycle_sanantonio/gbfs.json,,
182,['Social Bicycles Inc.'],/v2/networks/share-a-bull-bikes,share-a-bull-bikes,Share-a-Bull Bikes,"University of South Florida, FL",US,28.060548696070995,-82.4076198041439,,https://usf.socialbicycles.com/opendata/gbfs.json,,
183,['Comunicare S.r.l.'],/v2/networks/venezia,venezia,Venezia,Venezia,IT,45.4408474,12.3155151,http://www.bicincitta.com/frmLeStazioni.aspx?ID=93,,,
184,['Social Bicycles Inc.'],/v2/networks/sobi-long-beach,sobi-long-beach,SoBi,"Long Beach, NY",US,40.5833058203002,-73.6482682794673,,http://sobilongbeach.com/opendata/gbfs.json,,
185,"['BCycle, LLC']",/v2/networks/spartanburg,spartanburg,Spartanburg BCycle,"Spartanburg, SC",US,34.94867,-81.93345,,https://gbfs.bcycle.com/bcycle_spartanburg/gbfs.json,,
186,"['Topeka Metropolitan Transit Authority', 'Social Bicycles Inc.']",/v2/networks/topeka-metro-bikes,topeka-metro-bikes,Topeka Metro Bikes,"Topeka, KS",US,39.0337646098385,-95.7027213202284,,http://topekametrobikes.org/opendata/gbfs.json,,
187,['Comunicare S.r.l.'],/v2/networks/to-bike,to-bike,[TO]BIKE,Torino,IT,45.07098200000001,7.685676,http://www.tobike.it/frmLeStazioni.aspx?ID=22,,,
188,['Social Bicycles Inc.'],/v2/networks/ubike,ubike,UBike,"University of Virginia, VA",US,38.0357625021372,-78.5072994363201,,http://ubike.virginia.edu/opendata/gbfs.json,,
189,"['Motivate International, Inc.']",/v2/networks/ford-gobike,ford-gobike,Bay Wheels,"San Francisco Bay Area, CA",US,37.7141454,-122.25,,https://gbfs.fordgobike.com/gbfs/gbfs.json,,
190,"['CycleHop, LLC', 'Social Bicycles Inc']",/v2/networks/relay-atlanta,relay-atlanta,Relay Bike Share,"Atlanta, GA",US,33.7627941119619,-84.38727110624313,,https://relaybikeshare.socialbicycles.com/opendata/gbfs.json,,
191,"['Tembici', 'PBSC Urban Solutions']",/v2/networks/bikerecife,bikerecife,BikeRecife,Recife,BR,-8.047129,-34.873437,,https://rec.publicbikesystem.net/ube/gbfs/v1/,,
192,"['Tembici', 'PBSC Urban Solutions']",/v2/networks/bikesampa,bikesampa,BikeSampa,São Paulo,BR,-23.55,-46.6333,,https://saopaulo.publicbikesystem.net/ube/gbfs/v1/,,
193,"['Tembici', 'PBSC Urban Solutions']",/v2/networks/bikerio,bikerio,BikeRio,Rio de Janeiro,BR,-22.904315,-43.184776,,https://riodejaneiro.publicbikesystem.net/ube/gbfs/v1/,,
194,"['Tembici', 'PBSC Urban Solutions']",/v2/networks/bikesalvador,bikesalvador,BikeSalvador,Salvador,BR,-12.973959,-38.508171,,https://salvador.publicbikesystem.net/ube/gbfs/v1/,,
195,"['Tembici', 'PBSC Urban Solutions']",/v2/networks/bikepoa,bikepoa,BikePOA,Porto Alegre,BR,-30.033079,-51.23654,,https://poa.publicbikesystem.net/ube/gbfs/v1/,,
196,"['BKT bici publica S.A. de C.V.', 'PBSC Urban Solutions']",/v2/networks/mibici-guadalajara,mibici-guadalajara,MIBICI,Guadalajara,MX,20.6737883,-103.3704325,,https://guad.publicbikesystem.net/ube/gbfs/v1/,,
197,"['Your Bike', 'Urban Sharing']",/v2/networks/edinburgh-cycle-hire,edinburgh-cycle-hire,Just Eat Cycles,Edinburgh,UK,55.9411885,-3.2753783,,https://gbfs.urbansharing.com/edinburghcyclehire.com/gbfs.json,OGL v3 license,http://www.nationalarchives.gov.uk/doc/open-government-licence/version/3/
198,"['PBSC', 'Alta Bicycle Share, Inc']",/v2/networks/melbourne-bike-share,melbourne-bike-share,Melbourne Bike Share,Melbourne,AU,-37.814107,144.96328,,https://gbfs.melbourne.8d.com/gbfs/gbfs.json,,
199,['PBSC Urban Solutions'],/v2/networks/libelo,libelo,Libélo,Valence,FR,44.922726,4.905634,,https://valence.publicbikesystem.net/ube/gbfs/v1/en/,,
200,"['Tembici', 'PBSC Urban Solutions']",/v2/networks/bikesantiago,bikesantiago,BikeSantiago,Santiago,CL,-33.45,-70.67,,https://santiago.publicbikesystem.net/ube/gbfs/v1/,,
201,,/v2/networks/oslo-bysykkel,oslo-bysykkel,Bysykkel,Oslo,NO,59.913869,10.752245,,https://gbfs.urbansharing.com/oslobysykkel.no/gbfs.json,,
202,,/v2/networks/bergen-bysykkel,bergen-bysykkel,Bysykkel,Bergen,NO,60.391263,5.322054,,https://gbfs.urbansharing.com/bergenbysykkel.no/gbfs.json,,
203,,/v2/networks/trondheim-bysykkel,trondheim-bysykkel,Bysykkel,Trondheim,NO,63.4307238,10.3936781,,https://gbfs.urbansharing.com/trondheimbysykkel.no/gbfs.json,,
204,"['Keolis', 'Rennes Metropole']",/v2/networks/le-velo-star,le-velo-star,LE vélo Star,Rennes,FR,48.114167,-1.680833,https://data.explore.star.fr/explore/dataset/vls-stations-etat-tr/,,,
205,['Keolis Bordeaux Métropole'],/v2/networks/v3-bordeaux,v3-bordeaux,V³,Bordeaux,FR,44.837789,-0.57918,,,,
206,['Keolis'],/v2/networks/vlille,vlille,V'lille,Lille,FR,50.62925,3.057256,,,,
207,"['Keolis', 'STAP']",/v2/networks/idecycle,idecycle,IDECycle,Pau,FR,43.2951,-0.370797,,,,
208,['Labici Bicicletas Públicas SL'],/v2/networks/bicialtea,bicialtea,Bicialtea,Altea,ES,38.6029075,-0.0450666,,,,
209,['Labici Bicicletas Públicas SL'],/v2/networks/bicidorm,bicidorm,Bicidorm,Benidorm,ES,38.5410566,-0.1224937,,,,
210,['Labici Bicicletas Públicas SL'],/v2/networks/saforbici,saforbici,SaforBici,Gandía,ES,38.968032,-0.1844671,,,,
211,['Comunicare S.r.l.'],/v2/networks/ciclopi,ciclopi,Ciclopi,Pisa,IT,43.7228386,10.4016888,http://www.bicincitta.com/frmLeStazioni.aspx?ID=144,,,
212,['Labici Bicicletas Públicas SL'],/v2/networks/gbici,gbici,Gbici,Getafe,ES,40.3082504,-3.7323934,,,,
213,['Labici Bicicletas Públicas SL'],/v2/networks/muybici,muybici,MuyBici,Murcia,ES,37.9922399,-1.1306544,,,,
214,['Labici Bicicletas Públicas SL'],/v2/networks/ponfemobi,ponfemobi,PonfeMobi,Ponferrada,ES,42.5499958,-6.598259000000001,,,,
215,['Labici Bicicletas Públicas SL'],/v2/networks/vaibike,vaibike,VaiBike,Vilagarcía de Arousa,ES,42.5999265,-8.7885744,,,,
216,['Comunicare S.r.l.'],/v2/networks/cagliari,cagliari,Cagliari,Cagliari,IT,39.220817,9.121399,http://www.bicincitta.com/frmLeStazioni.aspx?ID=177,,,
217,['Buenos Aires Ciudad'],/v2/networks/ecobici-buenos-aires,ecobici-buenos-aires,Ecobici,Buenos Aires,AR,-34.630665,-58.41156,https://www.buenosaires.gob.ar/desarrollourbano/transporte/apitransporte,https://apitransporte.buenosaires.gob.ar/ecobici/gbfs/,Open Data Commons Open Database License 1.0 (ODbL),https://opendatacommons.org/licenses/odbl/
218,['EMEL'],/v2/networks/gira,gira,Gira,Lisbon,PT,38.724954,-9.149334,,,,
219,['Comunicare S.r.l.'],/v2/networks/gimme-bike,gimme-bike,Gimme Bike,Varese,IT,45.8183902,8.823913,http://www.bicincitta.com/frmLeStazioni.aspx?ID=50,,,
220,['JCDecaux'],/v2/networks/cyclic,cyclic,cy'clic,Rouen,FR,49.44323199999999,1.099971,https://developer.jcdecaux.com,,Open Licence,https://developer.jcdecaux.com/#/opendata/licence
221,['JCDecaux'],/v2/networks/velo,velo,Vélô,Toulouse,FR,43.604652,1.444209,https://developer.jcdecaux.com,,Open Licence,https://developer.jcdecaux.com/#/opendata/licence
222,['JCDecaux'],/v2/networks/veloh,veloh,Veloh,Luxembourg,LU,49.6301025,6.1520185,https://developer.jcdecaux.com,,Open Licence,https://developer.jcdecaux.com/#/opendata/licence
223,['JCDecaux'],/v2/networks/valenbisi,valenbisi,Valenbisi,Valencia,ES,39.4699075,-0.3762881,https://developer.jcdecaux.com,,Open Licence,https://developer.jcdecaux.com/#/opendata/licence
224,['Comunicare S.r.l.'],/v2/networks/sellero,sellero,Sellero,Sellero,IT,46.06304765446406,10.353434085845947,http://www.bicincitta.com/frmLeStazioni.aspx?ID=85,,,
225,['JCDecaux'],/v2/networks/goeteborg,goeteborg,Styr & Ställ,Göteborg,SE,57.70887,11.97456,https://developer.jcdecaux.com,,Open Licence,https://developer.jcdecaux.com/#/opendata/licence
226,['JCDecaux'],/v2/networks/lundahoj,lundahoj,Lundahoj,Lund,SE,55.7046601,13.1910073,https://developer.jcdecaux.com,,Open Licence,https://developer.jcdecaux.com/#/opendata/licence
227,['Comunicare S.r.l.'],/v2/networks/ugento,ugento,Ugento,Ugento,IT,39.9273518,18.1582962,http://www.bicincitta.com/frmLeStazioni.aspx?ID=103,,,
228,['JCDecaux'],/v2/networks/tusbic,tusbic,Tusbic,Santander,ES,43.46230569999999,-3.8099803,https://developer.jcdecaux.com,,Open Licence,https://developer.jcdecaux.com/#/opendata/licence
229,['JCDecaux'],/v2/networks/velam,velam,Velam,Amiens,FR,49.894067,2.295753,https://developer.jcdecaux.com,,Open Licence,https://developer.jcdecaux.com/#/opendata/licence
230,['JCDecaux'],/v2/networks/bysykkel-lillestrom,bysykkel-lillestrom,Bysykkel,Lillestrøm,NO,59.9559696,11.0503785,https://developer.jcdecaux.com,,Open Licence,https://developer.jcdecaux.com/#/opendata/licence
231,['JCDecaux'],/v2/networks/velocite-mulhouse,velocite-mulhouse,VéloCité,Mulhouse,FR,47.750839,7.335888,https://developer.jcdecaux.com,,Open Licence,https://developer.jcdecaux.com/#/opendata/licence
232,['Comunicare S.r.l.'],/v2/networks/prata-camportaccio,prata-camportaccio,Prata Camportaccio,Prata Camportaccio,IT,46.3042146,9.3964914,http://www.bicincitta.com/frmLeStazioni.aspx?ID=108,,,
233,['JCDecaux'],/v2/networks/velov,velov,Vélo'V,Lyon,FR,45.764043,4.835659,https://developer.jcdecaux.com,,Open Licence,https://developer.jcdecaux.com/#/opendata/licence
234,['JCDecaux'],/v2/networks/bicikelj,bicikelj,Bicikelj,Ljubljana,SI,46.05645089999999,14.5080702,https://developer.jcdecaux.com,,Open Licence,https://developer.jcdecaux.com/#/opendata/licence
235,['Comunicare S.r.l.'],/v2/networks/civitavecchia,civitavecchia,Civitavecchia,Civitavecchia,IT,42.0937524,11.7922462,http://www.bicincitta.com/frmLeStazioni.aspx?ID=127,,,
236,['JCDecaux'],/v2/networks/sevici,sevici,Sevici,Sevilla,ES,37.3880961,-5.9823299,https://developer.jcdecaux.com,,Open Licence,https://developer.jcdecaux.com/#/opendata/licence
237,['Comunicare S.r.l.'],/v2/networks/longanoinbici,longanoinbici,LonganoinBici,Barcellona Pozzo di Gotto,IT,38.149812517944284,15.212116241455078,http://www.bicincitta.com/frmLeStazioni.aspx?ID=140,,,
238,['JCDecaux'],/v2/networks/li-bia-velo,li-bia-velo,Li bia velo,Namur,BE,50.465328,4.867665,https://developer.jcdecaux.com,,Open Licence,https://developer.jcdecaux.com/#/opendata/licence
239,['JCDecaux'],/v2/networks/velostanlib,velostanlib,vélOstan'lib,Nancy,FR,48.692054,6.184417,https://developer.jcdecaux.com,,Open Licence,https://developer.jcdecaux.com/#/opendata/licence
240,['JCDecaux'],/v2/networks/cristolib,cristolib,Cristolib,Créteil,FR,48.790367,2.455572,https://developer.jcdecaux.com,,Open Licence,https://developer.jcdecaux.com/#/opendata/licence
241,['JCDecaux'],/v2/networks/villo,villo,villo,Bruxelles,BE,50.8503396,4.3517103,https://developer.jcdecaux.com,,Open Licence,https://developer.jcdecaux.com/#/opendata/licence
242,['Comunicare S.r.l.'],/v2/networks/cassano-d-adda,cassano-d-adda,Cassano d'Adda,Cassano d'Adda,IT,45.5309616,9.5155813,http://www.bicincitta.com/frmLeStazioni.aspx?ID=143,,,
243,['JCDecaux'],/v2/networks/velo2,velo2,Velo2,Cergy,FR,49.03561699999999,2.060325,https://developer.jcdecaux.com,,Open Licence,https://developer.jcdecaux.com/#/opendata/licence
244,['JCDecaux'],/v2/networks/vilnius-cyclocity,vilnius-cyclocity,Cyclocity,Vilnius,LT,54.6871555,25.2796514,https://developer.jcdecaux.com,,Open Licence,https://developer.jcdecaux.com/#/opendata/licence
245,['JCDecaux'],/v2/networks/toyama-cyclocity,toyama-cyclocity,cyclocity,富山市,JP,36.6959518,137.2136768,https://developer.jcdecaux.com,,Open Licence,https://developer.jcdecaux.com/#/opendata/licence
246,['JCDecaux'],/v2/networks/velik,velik,Veli'k,Казань,RU,55.7949414,49.1050445,https://developer.jcdecaux.com,,Open Licence,https://developer.jcdecaux.com/#/opendata/licence
247,['Comunicare S.r.l.'],/v2/networks/bianzone-in-bici,bianzone-in-bici,Bianzone in Bici,Bianzone,IT,46.188197,10.109354,http://www.bicincitta.com/frmLeStazioni.aspx?ID=147,,,
248,['JCDecaux'],/v2/networks/le-velo,le-velo,Le vélo,Marseille,FR,43.296482,5.36978,https://developer.jcdecaux.com,,Open Licence,https://developer.jcdecaux.com/#/opendata/licence
249,['JCDecaux'],/v2/networks/bicloo,bicloo,Bicloo,Nantes,FR,47.218371,-1.553621,https://developer.jcdecaux.com,,Open Licence,https://developer.jcdecaux.com/#/opendata/licence
250,['JCDecaux'],/v2/networks/velocite-besancon,velocite-besancon,VéloCité,Besançon,FR,47.237829,6.024053899999999,https://developer.jcdecaux.com,,Open Licence,https://developer.jcdecaux.com/#/opendata/licence
251,['Comunicare S.r.l.'],/v2/networks/rietinbici,rietinbici,Rietinbici,Rieti,IT,42.40262397383167,12.86099910736084,http://www.bicincitta.com/frmLeStazioni.aspx?ID=158,,,
252,['JCDecaux'],/v2/networks/dublinbikes,dublinbikes,dublinbikes,Dublin,IE,53.3498053,-6.2603097,https://developer.jcdecaux.com,,Open Licence,https://developer.jcdecaux.com/#/opendata/licence
253,['JCDecaux'],/v2/networks/citycycle,citycycle,CityCycle,Brisbane,AU,-27.4710107,153.0234489,https://developer.jcdecaux.com,,Open Licence,https://developer.jcdecaux.com/#/opendata/licence
254,,/v2/networks/bicipalma,bicipalma,Bicipalma,Palma,ES,39.57119,2.646634,,,,
255,['Cyacle Bicycle Rental LLC'],/v2/networks/adcb-bikeshare,adcb-bikeshare,ADCB Bikeshare,Abu Dhabi,AE,24.450278,54.39,,,,
256,['Comunicare S.r.l.'],/v2/networks/castellucchio,castellucchio,Castellucchio,Castellucchio,IT,45.15047821582959,10.651202201843262,http://www.bicincitta.com/frmLeStazioni.aspx?ID=161,,,
257,['Veolia'],/v2/networks/dkvelo,dkvelo,DK'Vélo,Dunkerque,FR,51.0383,2.3775,,,,
258,['Veolia'],/v2/networks/velobleu,velobleu,Vélo Bleu,Nice,FR,43.695949,7.271413,,,,
259,['Comunicare S.r.l.'],/v2/networks/notoinbici,notoinbici,NotoinBici,Noto,IT,36.889437754839854,15.074658393859863,http://www.bicincitta.com/frmLeStazioni.aspx?ID=162,,,
260,['Comunicare S.r.l.'],/v2/networks/enna,enna,Enna,Enna,IT,37.56342572664775,14.27973747253418,http://www.bicincitta.com/frmLeStazioni.aspx?ID=163,,,
261,['Comunicare S.r.l.'],/v2/networks/pordenone,pordenone,Pordenone,Pordenone,IT,45.94790101663391,12.674491020251475,http://www.bicincitta.com/frmLeStazioni.aspx?ID=164,,,
262,['Veolia'],/v2/networks/velocea,velocea,Vélocéa,Vannes,FR,47.6559,-2.7603,,,,
263,['Veolia'],/v2/networks/vel-in,vel-in,Vél'in,Calais,FR,50.95,1.85,,,,
264,['Comunicare S.r.l.'],/v2/networks/carbonia,carbonia,Carbonia,Carbonia,IT,39.167222,8.522222,http://www.bicincitta.com/frmLeStazioni.aspx?ID=173,,,
265,['Municipiul Cluj-Napoca'],/v2/networks/clujbike,clujbike,Cluj Bike,Cluj-Napoca,RO,46.775,23.5975,,,,
266,['Comunicare S.r.l.'],/v2/networks/mobike,mobike,MoBike,Genova,IT,44.40430089372731,8.92908986230462,http://www.bicincitta.com/frmLeStazioni.aspx?ID=175,,,
267,"['Prefeiture de Sorocaba', 'Urbes']",/v2/networks/integrabike,integrabike,Integrabike,Sorocaba,BR,-23.5015,-47.4526,,,,
268,['Comunicare S.r.l.'],/v2/networks/scegli-in-bici,scegli-in-bici,Scegli in Bici,Cremona,IT,45.134914104864116,10.0222648619018,http://www.bicincitta.com/frmLeStazioni.aspx?ID=178,,,
269,"['Associação dos Amigos da Riviera de São Lourenço', 'Sobloco']",/v2/networks/rivibike,rivibike,RiviBike,São Lourenço,BR,-22.1124,-45.028,,,,
270,['Comunicare S.r.l.'],/v2/networks/e-motion-trento,e-motion-trento,e.motion,Trento,IT,46.06643205823519,11.122145390351879,http://www.bicincitta.com/frmLeStazioni.aspx?ID=187,,,
271,"['Duke Energy Brasil', 'Governo de Ipaussu']",/v2/networks/dukebike,dukebike,DukeBike,Ipaússu,BR,-23.0553,-49.6237,,,,
272,['Comunicare S.r.l.'],/v2/networks/e-motion-pergine-valsugana,e-motion-pergine-valsugana,e.motion,Pergine Valsugana,IT,46.06050419001399,11.239041694195503,http://www.bicincitta.com/frmLeStazioni.aspx?ID=188,,,
273,"['Barcelona de Serveis Municipals, S.A. (BSM)', 'CESPA', 'PBSC']",/v2/networks/bicing,bicing,Bicing,Barcelona,ES,41.3850639,2.1734035,,,,
274,['Baksi Bike Sharing System'],/v2/networks/baksi-antalya,baksi-antalya,Baksi,Antalya,TR,36.862048,30.638866,,,,
275,['Baksi Bike Sharing System'],/v2/networks/baksi-bisim,baksi-bisim,Baksi,Izmir,TR,38.4134047464,27.0325753524,,,,
276,['Comunicare S.r.l.'],/v2/networks/e-motion-rovereto,e-motion-rovereto,e.motion,Rovereto,IT,45.88710661061543,11.042242751867644,http://www.bicincitta.com/frmLeStazioni.aspx?ID=189,,,
277,['Baksi Bike Sharing System'],/v2/networks/baksi-istanbul,baksi-istanbul,Isbike,Istanbul,TR,40.9696887925,29.0475373717,,,,
278,['Baksi Bike Sharing System'],/v2/networks/baksi-kobis,baksi-kobis,Baksi,Kocaeli,TR,40.7674733342,29.9755885985,,,,
279,['Gewista Werbegesellschaft m.b.H'],/v2/networks/citybike-wien,citybike-wien,Citybike Wien,Wien,AT,48.2081743,16.3738189,,,,
280,"['Helsinki City Transport', 'Helsinki Regional Transport', 'CityBikeFinland', 'Smoove SAS', 'Moventia', 'Alepa']",/v2/networks/citybikes-helsinki,citybikes-helsinki,City bikes,Helsinki,FI,60.16985569999999,24.938379,,,,
281,['Comunicare S.r.l.'],/v2/networks/monopoli-bike,monopoli-bike,Monopoli BIKE,Monopoli,IT,40.94519109440738,17.311687995336918,http://www.bicincitta.com/frmLeStazioni.aspx?ID=191,,,
282,"['Turku Region Traffic Föli', 'Nextbike Polska']",/v2/networks/foli,foli,Föli-fillari,Turku,FI,60.4506,22.2666,,,,
283,['ITCL'],/v2/networks/bicileon,bicileon,Bicileon,León,ES,42.5987263,-5.5670959,,,,
284,['Comunicare S.r.l.'],/v2/networks/bicimia,bicimia,BiciMia,Brescia,IT,45.5398382,10.2229562,,,,
285,['FSM Ground Services Ltd.'],/v2/networks/telofun,telofun,Tel-O-Fun,"Tel Aviv-Yaffo, Giv'atayim, Ramat-Gan",IL,32.087053,34.789776,,,,
286,['Comunicare S.r.l.'],/v2/networks/andria,andria,Andria in Bici,Andria,IT,41.224346932834,16.296983922753956,http://www.bicincitta.com/frmLeStazioni.aspx?ID=192,,,
287,['Open Source Bike Share'],/v2/networks/whitebikes,whitebikes,WhiteBikes,Bratislava,SK,48.149424,17.113922,,,,
288,"['Dopravný podnik Bratislava', 'Bratislavská integrovaná doprava, a.s.', 'Hlavné mesto SR Bratislava']",/v2/networks/slovnaft-bajk,slovnaft-bajk,Slovnaft BAjk,Bratislava,SK,48.1356952,16.9758332,,,,
289,['Open Source Bike Share'],/v2/networks/cykl,cykl,Cykl,Wageningen,NL,51.974,5.6671,,,,
290,['Open Source Bike Share'],/v2/networks/bicyklezadobreskutky,bicyklezadobreskutky,Bicykle za dobré skutky,Prešov,SK,48.996275,21.234341,,,,
291,['Social Bicycles Inc.'],/v2/networks/socialbicycles-wavelo,socialbicycles-wavelo,Wavelo,Kraków,PL,50.06143,19.93658,,,,
292,['Comunicare S.r.l.'],/v2/networks/bicinquartucciu,bicinquartucciu,BicinQuartucciu,Quartucciu,IT,39.25043149806156,9.179296426489255,http://www.bicincitta.com/frmLeStazioni.aspx?ID=193,,,
293,['Mainzer Verkehrsgesellschaft mbH (MVG)'],/v2/networks/mvgmeinrad,mvgmeinrad,MVGmeinrad,Mainz,DE,49.992862,8.247253,,,,
294,['Sistema de Bicicletas Públicas del Valle de Aburrá'],/v2/networks/encicla,encicla,EnCicla,Medellin,CO,6.254942,-75.567982,,,,
295,['Comunicare S.r.l.'],/v2/networks/olbia-bike,olbia-bike,Olbia Bike,Olbia,IT,40.9240543,9.4994397,http://www.bicincitta.com/frmLeStazioni.aspx?ID=194,,,
296,"['Vanncouver Bike Share Inc', 'CycleHop LLC', 'City of Vancouver', 'Smoove SAS']",/v2/networks/mobibikes,mobibikes,Mobi,Vancouver,CA,49.2827,-123.1207,,,,
297,['Comunicare S.r.l.'],/v2/networks/savona,savona,Savona,Savona,IT,44.29516444397244,8.463126708984431,http://www.bicincitta.com/frmLeStazioni.aspx?ID=195,,,
298,['Smoove'],/v2/networks/c-velo,c-velo,C.Vélo,Clermont-Ferrand,FR,45.770958,3.073871,,,,
299,['Smoove'],/v2/networks/velivert,velivert,VéliVert,Saint-Étienne,FR,45.396667,4.290833,,https://saint-etienne-gbfs.klervi.net/gbfs/en/gbfs.json,,
300,['Comunicare S.r.l.'],/v2/networks/brindisi,brindisi,BrindisiByBike,Brindisi,IT,40.637580319936106,17.940774547082572,http://www.bicincitta.com/frmLeStazioni.aspx?ID=197,,,
301,['Smoove'],/v2/networks/velopop,velopop,Vélopop,Avignon,FR,43.943689,4.805833,,,,
302,['Smoove'],/v2/networks/batumvelo,batumvelo,Batumvelo,Batumi,GE,41.660906,41.678835,,,,
303,['Comunicare S.r.l.'],/v2/networks/tradate,tradate,Tradate,Tradate,IT,45.70938576720161,8.915993391601548,http://www.bicincitta.com/frmLeStazioni.aspx?ID=198,,,
304,"['Mobilicidade Tecnologia LTD', 'Grupo Serttel LTDA']",/v2/networks/bikebh,bikebh,BikeBH,Belo Horizonte,BR,-19.920793,-43.922165,,,,
305,"['Mobilicidade Tecnologia LTD', 'Grupo Serttel LTDA']",/v2/networks/bikepetrolina,bikepetrolina,BikePetrolina,Petrolina,BR,-9.389049,-40.502751,,,,
306,['Comunicare S.r.l.'],/v2/networks/jesinbici,jesinbici,JesinBici,Jesi,IT,43.522601,13.244448,http://www.bicincitta.com/frmLeStazioni.aspx?ID=236,,,
307,['Comunicare S.r.l.'],/v2/networks/nbici,nbici,nbici,Pamplona,ES,42.8116631,-1.6482653,http://www.bicincitta.com/frmLeStazioni.aspx?ID=230,,,
308,"['Mobilicidade Tecnologia LTD', 'Grupo Serttel LTDA']",/v2/networks/bikebrasilia,bikebrasilia,BikeBrasilia,Brasília,BR,-15.795115,-47.887424,,,,
309,"['Mobilicidade Tecnologia LTD', 'Grupo Serttel LTDA']",/v2/networks/debikegoiania,debikegoiania,GynDebike,Goiânia,BR,-16.670492,-49.259535,,,,
310,['Comunicare S.r.l.'],/v2/networks/treviso,treviso,Treviso,Treviso,IT,45.6669011,12.243039,http://www.bicincitta.com/frmLeStazioni.aspx?ID=179,,,
311,"['Mobilicidade Tecnologia LTD', 'Grupo Serttel LTDA']",/v2/networks/bicicletar,bicicletar,Bicicletar,Fortaleza,BR,-3.7321944,-38.510347,,,,
312,"['Mobilicidade Tecnologia LTD', 'Grupo Serttel LTDA']",/v2/networks/cajubike,cajubike,CajuBike,Aracajú,BR,-10.987263,-37.051898,,,,
313,"['Mobilicidade Tecnologia LTD', 'Grupo Serttel LTDA']",/v2/networks/bikebelem,bikebelem,Bike Belém,Belém,BR,-1.4600794,-48.490865,,,,
314,['Comunicare S.r.l.'],/v2/networks/sondrio,sondrio,Sondrio,Sondrio,IT,46.1698583,9.8787674,http://www.bicincitta.com/frmLeStazioni.aspx?ID=213,,,
315,"['Mobilicidade Tecnologia LTD', 'Grupo Serttel LTDA']",/v2/networks/bikesantos,bikesantos,BikeSantos,Santos,BR,-23.954052,-46.333345,,,,
316,['Comunicare S.r.l.'],/v2/networks/vercelli,vercelli,Vercelli,Vercelli,IT,45.32022720000001,8.418573499999999,http://www.bicincitta.com/frmLeStazioni.aspx?ID=235,,,
317,['Comunicare S.r.l.'],/v2/networks/portofino-park-and-bike,portofino-park-and-bike,Portofino Park and Bike,Santa Margherita Ligure - Portofino - Camogli,IT,44.335084,9.211264,http://www.bicincitta.com/frmLeStazioni.aspx?ID=128,,,
318,"['Mobilicidade Tecnologia LTD', 'Municipalidad de Rosario']",/v2/networks/mibicitubici,mibicitubici,Mi bici tu bici,Rosario,AR,-32.95,-60.65,,,,
319,['DecoBike LLC'],/v2/networks/decobike-miami-beach,decobike-miami-beach,Citi Bike Miami,"Miami Beach, FL",US,25.790654,-80.1300455,,,,
320,['DecoBike LLC'],/v2/networks/decobike-san-diego,decobike-san-diego,Decobike San Diego,"San Diego, CA",US,32.715738,-117.1610838,,,,
321,['Comunicare S.r.l.'],/v2/networks/meglio-in-bici,meglio-in-bici,Meglio in Bici,Cernusco sul Naviglio - Pioltello - Carugate,IT,45.520541,9.341984,http://www.bicincitta.com/frmLeStazioni.aspx?ID=121,,,
322,"['Trek Bicycle Corporation', 'Humana', 'Crispin Porter + Bogusky']",/v2/networks/battlecreek,battlecreek,Battle Creek B-cycle,"Battle Creek, MI",US,42.32423,-85.18833,,,,
323,"['Trek Bicycle Corporation', 'Humana', 'Crispin Porter + Bogusky']",/v2/networks/desmoines,desmoines,Des Moines B-cycle,"Des Moines, IA",US,41.6005448,-93.6091064,,,,
324,['Comunicare S.r.l.'],/v2/networks/ossola,ossola,Comunità Montana Valli dell'Ossola,Santa Maria Maggiore - Malesco - Villette,IT,46.127196,8.499169,http://www.bicincitta.com/frmLeStazioni.aspx?ID=152,,,
325,"['Trek Bicycle Corporation', 'Humana', 'Crispin Porter + Bogusky']",/v2/networks/greenville,greenville,Greenville B-cycle,"Greenville, SC",US,34.85261759999999,-82.3940104,,,,
326,['Comunicare S.r.l.'],/v2/networks/bicincitta-mezzolombardo,bicincitta-mezzolombardo,Bicincittà,Mezzolombardo,IT,46.21400260000001,11.0967867,http://www.bicincitta.com/frmLeStazioni.aspx?ID=228,,,
327,"['Trek Bicycle Corporation', 'Humana', 'Crispin Porter + Bogusky']",/v2/networks/nashville,nashville,Nashville B-cycle,"Nashville, TN",US,36.1666667,-86.7833333,,,,
328,['Comunicare S.r.l.'],/v2/networks/bicincitta-lausanne-campus-morges,bicincitta-lausanne-campus-morges,Bicincittà,Lausanne - Morges - Campus,CH,46.5196535,6.6322734,http://www.bicincitta.com/frmLeStazioni.aspx?ID=123,,,
329,"['Trek Bicycle Corporation', 'Humana', 'Crispin Porter + Bogusky']",/v2/networks/columbia-county,columbia-county,Columbia County B-cycle,"Evans, GA",US,33.5375,-82.127778,,,,
330,['Comunicare S.r.l.'],/v2/networks/bicincitta-scafati,bicincitta-scafati,Bicincittà,Scafati,IT,40.7620174,14.5363969,http://www.bicincitta.com/frmLeStazioni.aspx?ID=106,,,
331,"['Trek Bicycle Corporation', 'Humana', 'Crispin Porter + Bogusky']",/v2/networks/catbike,catbike,CAT Bike,"Savannah, GA",US,32.016667,-81.116667,,,,
332,['Comunicare S.r.l.'],/v2/networks/bicincitta-livorno,bicincitta-livorno,Bicincittà,Livorno,IT,43.548473,10.3105674,http://www.bicincitta.com/frmLeStazioni.aspx?ID=226,,,
333,"['Trek Bicycle Corporation', 'Humana', 'Crispin Porter + Bogusky']",/v2/networks/rapid-city,rapid-city,Rapid City B-cycle,"Rapid City, SD",US,44.076,-103.228,,,,
334,['Comunicare S.r.l.'],/v2/networks/bicincitta-valais-central,bicincitta-valais-central,Bicincittà,Sion,CH,46.2331221,7.360625999999999,http://www.bicincitta.com/frmLeStazioni.aspx?ID=89,,,
335,['Comunicare S.r.l.'],/v2/networks/bicincitta-forli,bicincitta-forli,Mi Muovo in Bici,Forlì,IT,44.2227398,12.0407312,http://www.mimuovoinbici.it/frmLeStazioni.aspx?ID=119,,,
336,['Comunicare S.r.l.'],/v2/networks/bicincitta-rivarolo-canavese,bicincitta-rivarolo-canavese,Bicincittà,Rivarolo Canavese,IT,45.306633,7.723242,http://www.bicincitta.com/frmLeStazioni.aspx?ID=227,,,
337,['Comunicare S.r.l.'],/v2/networks/bicincitta-monserrato,bicincitta-monserrato,Bicincittà,Monserrato,IT,39.2560191,9.1453579,http://www.bicincitta.com/frmLeStazioni.aspx?ID=220,,,
338,['Comunicare S.r.l.'],/v2/networks/bicincitta-mezzocorona,bicincitta-mezzocorona,Bicincittà,Mezzocorona,IT,46.2339047,11.1277461,http://www.bicincitta.com/frmLeStazioni.aspx?ID=229,,,
339,['Comunicare S.r.l.'],/v2/networks/bicincitta-san-lazzaro-di-savena,bicincitta-san-lazzaro-di-savena,Mi Muovo in Bici,San Lazzaro di Savena,IT,44.4702725,11.409399,http://www.mimuovoinbici.it/frmLeStazioni.aspx?ID=100,,,
340,['Comunicare S.r.l.'],/v2/networks/bicincitta-san-teodoro,bicincitta-san-teodoro,Bicincittà,San Teodoro,IT,40.7722837,9.6695458,http://www.bicincitta.com/frmLeStazioni.aspx?ID=225,,,
341,['Comunicare S.r.l.'],/v2/networks/bicincitta-parco-molentargius-saline,bicincitta-parco-molentargius-saline,Bicincittà,Parco Naturale Molentargius - Saline,IT,39.2052545,9.146761099999999,http://www.bicincitta.com/frmLeStazioni.aspx?ID=151,,,
342,['Comunicare S.r.l.'],/v2/networks/parkinbici,parkinbici,Parkinbici,Parco Nazionale del Gargano,IT,41.7817081,15.8516421,http://www.bicincitta.com/frmLeStazioni.aspx?ID=105,,,
343,['Comunicare S.r.l.'],/v2/networks/bicincitta-gallipoli,bicincitta-gallipoli,Bicincittà,Gallipoli,IT,40.0558554,17.9925085,http://www.bicincitta.com/frmLeStazioni.aspx?ID=109,,,
344,['Comunicare S.r.l.'],/v2/networks/bicincitta-castel-guelfo-the-style-outlets,bicincitta-castel-guelfo-the-style-outlets,Bicincittà,Castel Guelfo di Bologna,IT,44.4328527,11.6750857,http://www.bicincitta.com/frmLeStazioni.aspx?ID=233,,,
345,['Comunicare S.r.l.'],/v2/networks/bicincitta-san-michele-alladige,bicincitta-san-michele-alladige,Bicincittà,San Michele All'adige,IT,46.1878653,11.1330423,http://www.bicincitta.com/frmLeStazioni.aspx?ID=231,,,
346,['Comunicare S.r.l.'],/v2/networks/bicincitta-agglo-fribourg,bicincitta-agglo-fribourg,Bicincittà,Fribourg,CH,46.8064773,7.161971899999999,http://www.bicincitta.com/frmLeStazioni.aspx?ID=33,,,
347,['Comunicare S.r.l.'],/v2/networks/bicincitta-modena,bicincitta-modena,Mi Muovo in bici,Modena,IT,44.647128,10.9252269,http://www.mimuovoinbici.it/frmLeStazioni.aspx?ID=180,,,
348,['Comunicare S.r.l.'],/v2/networks/bicincitta-brancaleone,bicincitta-brancaleone,Bicincittà,Brancaleone,IT,37.9679084,16.0757749,http://www.bicincitta.com/frmLeStazioni.aspx?ID=104,,,
349,['Comunicare S.r.l.'],/v2/networks/bicincitta-bulle,bicincitta-bulle,Bicincittà,Bulle,CH,46.6154512,7.057726799999999,http://www.bicincitta.com/frmLeStazioni.aspx?ID=34,,,
350,['Comunicare S.r.l.'],/v2/networks/bicincitta-riviera,bicincitta-riviera,Bicincittà,Distretto della Riviera-Pays-d'Enhaut,CH,46.4628333,6.8419192,http://www.bicincitta.com/frmLeStazioni.aspx?ID=129,,,
351,['Comunicare S.r.l.'],/v2/networks/bicincitta-scandiano,bicincitta-scandiano,Mi Muovo in Bici,Scandiano,IT,44.5982342,10.6909273,http://www.mimuovoinbici.it/frmLeStazioni.aspx?ID=94,,,
352,['Comunicare S.r.l.'],/v2/networks/bicincitta-elmas,bicincitta-elmas,Bicincittà,Elmas,IT,39.2634329,9.0515805,http://www.bicincitta.com/frmLeStazioni.aspx?ID=218,,,
353,['Comunicare S.r.l.'],/v2/networks/bicincitta-tivat,bicincitta-tivat,Bicincittà,TV,ME,42.4349809,18.7066398,http://www.bicincitta.com/frmLeStazioni.aspx?ID=87,,,
354,['Comunicare S.r.l.'],/v2/networks/bicincitta-acquaviva-delle-fonti,bicincitta-acquaviva-delle-fonti,Bicincittà,Acquaviva delle fonti,IT,40.9303721,16.8414374,http://www.bicincitta.com/frmLeStazioni.aspx?ID=160,,,
355,['Comunicare S.r.l.'],/v2/networks/we-love-bike,we-love-bike,We Love bike,Lodi,IT,45.3097228,9.503715999999999,http://www.bicincitta.com/frmLeStazioni.aspx?ID=190,,,
356,['Comunicare S.r.l.'],/v2/networks/bicincitta-acquarica-del-capo,bicincitta-acquarica-del-capo,Bicincittà,Acquarica del Capo,IT,39.9144573,18.2450324,http://www.bicincitta.com/frmLeStazioni.aspx?ID=146,,,
357,['Comunicare S.r.l.'],/v2/networks/bicincitta-vicolungo-the-style-outlets,bicincitta-vicolungo-the-style-outlets,Bicincittà,Vicolungo,IT,45.47167229999999,8.4633922,http://www.bicincitta.com/frmLeStazioni.aspx?ID=232,,,
358,['Comunicare S.r.l.'],/v2/networks/bicincitta-porto-torres,bicincitta-porto-torres,Bicincittà,Porto Torres,IT,40.8333682,8.402292899999999,http://www.bicincitta.com/frmLeStazioni.aspx?ID=221,,,
359,['Comunicare S.r.l.'],/v2/networks/bicincitta-cisterna-di-latina,bicincitta-cisterna-di-latina,Bicincittà,Cisterna di Latina,IT,41.5754029,12.8284772,http://www.bicincitta.com/frmLeStazioni.aspx?ID=217,,,
360,['Comunicare S.r.l.'],/v2/networks/bicincitta-casaletto-spartano,bicincitta-casaletto-spartano,Bicincittà,Casaletto Spartano,IT,40.1532801,15.6211479,http://www.bicincitta.com/frmLeStazioni.aspx?ID=199,,,
361,['Comunicare S.r.l.'],/v2/networks/bicincitta-selargius,bicincitta-selargius,Bicincittà,Selargius,IT,39.2596768,9.1629372,http://www.bicincitta.com/frmLeStazioni.aspx?ID=219,,,
362,['Comunicare S.r.l.'],/v2/networks/bicincitta-yverdon-les-bains,bicincitta-yverdon-les-bains,Bicincittà,Yverdon-les-Bains,CH,46.7784736,6.641183,http://www.bicincitta.com/frmLeStazioni.aspx?ID=116,,,
363,['Comunicare S.r.l.'],/v2/networks/bicincitta-monza,bicincitta-monza,Bicincittà,Monza,IT,45.5845001,9.2744485,http://www.bicincitta.com/frmLeStazioni.aspx?ID=224,,,
364,['Comunicare S.r.l.'],/v2/networks/bicincitta-la-cote,bicincitta-la-cote,Bicincittà,Nyon,CH,46.3832683,6.2347852,http://www.bicincitta.com/frmLeStazioni.aspx?ID=32,,,
365,['Comunicare S.r.l.'],/v2/networks/bicincitta-morigerati,bicincitta-morigerati,Bicincittà,Morigerati,IT,40.1422031,15.5298525,http://www.bicincitta.com/frmLeStazioni.aspx?ID=200,,,
366,['Comunicare S.r.l.'],/v2/networks/bicincitta-san-donato-milanese,bicincitta-san-donato-milanese,Bicincittà,San Donato Milanese,IT,45.4092402,9.2684867,http://www.bicincitta.com/frmLeStazioni.aspx?ID=234,,,
367,['Comunicare S.r.l.'],/v2/networks/bicincitta-chablais,bicincitta-chablais,Bicincittà,Monthey - Aigle,CH,46.2521873,6.9469598,http://www.bicincitta.com/frmLeStazioni.aspx?ID=60,,,
368,['Comunicare S.r.l.'],/v2/networks/bicincitta-ente-parco-del-circeo,bicincitta-ente-parco-del-circeo,Bicincittà,Parco Nazionale del Circeo,IT,41.3151015,13.0330782,http://www.bicincitta.com/frmLeStazioni.aspx?ID=135,,,
369,['Comunicare S.r.l.'],/v2/networks/bicincitta-cesena,bicincitta-cesena,Mi Muovo in bici,Cesena,IT,44.1396438,12.2464292,http://www.mimuovoinbici.it/frmLeStazioni.aspx?ID=120,,,
370,['Comunicare S.r.l.'],/v2/networks/bicincitta-lugano-paradiso,bicincitta-lugano-paradiso,Bicincittà,Paradiso,CH,45.9907174,8.945261799999999,http://www.bicincitta.com/frmLeStazioni.aspx?ID=130,,,
371,['Comunicare S.r.l.'],/v2/networks/lecco,lecco,Bicincittà,Lecco,IT,45.8565698,9.397670399999999,http://www.bicincitta.com/frmLeStazioni.aspx?ID=49,,,
372,['Comunicare S.r.l.'],/v2/networks/bicincitta-alghero,bicincitta-alghero,Bicincittà,Alghero,IT,40.5579517,8.319294900000001,http://www.bicincitta.com/frmLeStazioni.aspx?ID=237,,,
373,['Comunicare S.r.l.'],/v2/networks/bicincitta-san-giovanni-in-persiceto,bicincitta-san-giovanni-in-persiceto,Mi Muovo in Bici,San Giovanni in Persiceto,IT,44.6405433,11.1893053,http://www.mimuovoinbici.it/frmLeStazioni.aspx?ID=101,,,
374,['Comunicare S.r.l.'],/v2/networks/bicincitta-ente-parco-san-rossore,bicincitta-ente-parco-san-rossore,Bicincittà,Parco naturale Migliarino San Rossore Massaciuccoli,IT,43.723826,10.339509,http://www.bicincitta.com/frmLeStazioni.aspx?ID=145,,,
375,['Comunicare S.r.l.'],/v2/networks/bicincitta-treviglio,bicincitta-treviglio,Bicincittà,Treviglio,IT,45.5293372,9.591435899999999,http://www.bicincitta.com/frmLeStazioni.aspx?ID=174,,,
376,['Comunicare S.r.l.'],/v2/networks/bicincitta-lavis,bicincitta-lavis,Bicincittà,Lavis,IT,46.1408423,11.1124935,http://www.bicincitta.com/frmLeStazioni.aspx?ID=238,,,
377,['Comunicare S.r.l.'],/v2/networks/bicincitta-les-lacs-romont,bicincitta-les-lacs-romont,Bicincittà,Murten,CH,46.92922110000001,7.120184,http://www.bicincitta.com/frmLeStazioni.aspx?ID=35,,,
378,['Comunicare S.r.l.'],/v2/networks/bicincitta-ente-parco-di-montemarcello-magra,bicincitta-ente-parco-di-montemarcello-magra,Bicincittà,Ente Parco Montemarcello Magra,IT,44.1143897,9.9635986,http://www.bicincitta.com/frmLeStazioni.aspx?ID=132,,,
379,['Comunicare S.r.l.'],/v2/networks/bicischio,bicischio,BiciSchio,Schio,IT,45.7170517,11.3597702,http://www.bicincitta.com/frmLeStazioni.aspx?ID=91,,,
380,['Comunicare S.r.l.'],/v2/networks/bicincitta-imola,bicincitta-imola,Mi Muovo in bici,Imola,IT,44.3559128,11.7161197,http://www.mimuovoinbici.it/frmLeStazioni.aspx?ID=196,,,
381,['Nextbike GmbH'],/v2/networks/nextbike-leipzig,nextbike-leipzig,Nextbike,Leipzig,DE,51.3415,12.3625,,,,
382,['Nextbike GmbH'],/v2/networks/norisbike-nurnberg,norisbike-nurnberg,NorisBike,Nürnberg,DE,49.4479,11.0814,,,,
383,['Nextbike GmbH'],/v2/networks/nextbike-wiesbaden,nextbike-wiesbaden,Nextbike,Wiesbaden,DE,50.0709,8.24322,,,,
384,['Nextbike GmbH'],/v2/networks/visa-frankfurt,visa-frankfurt,VISA,Frankfurt,DE,50.1072,8.66375,,,,
385,['Nextbike GmbH'],/v2/networks/kvb-rad-koln,kvb-rad-koln,KVB Rad,Köln,DE,50.9429,6.95649,,,,
386,['Nextbike GmbH'],/v2/networks/facherrad-karlsruhe,facherrad-karlsruhe,Fächerrad,Karlsruhe,DE,49.0102,8.41827,,,,
387,['Nextbike GmbH'],/v2/networks/burgenland-neusiedler-see,burgenland-neusiedler-see,Burgenland,Neusiedler See,AT,47.839,16.761,,,,
388,['Nextbike GmbH'],/v2/networks/nextbike-offenbach-am-main,nextbike-offenbach-am-main,Nextbike,Offenbach am Main,DE,50.1093,8.73825,,,,
389,['Nextbike GmbH'],/v2/networks/nextbike-auckland,nextbike-auckland,Nextbike,Auckland,NZ,-36.8603,174.763,,,,
390,['Nextbike GmbH'],/v2/networks/nextbike-magdeburg,nextbike-magdeburg,Nextbike,Magdeburg,DE,52.1268,11.6342,,,,
391,['Nextbike GmbH'],/v2/networks/nextbike-hamburg,nextbike-hamburg,Nextbike,Hamburg,DE,53.5506,9.99052,,,,
392,['Nextbike GmbH'],/v2/networks/nextbike-dusseldorf,nextbike-dusseldorf,Nextbike,Düsseldorf,DE,51.2243,6.77204,,,,
393,['Nextbike GmbH'],/v2/networks/nextbike-stpolten,nextbike-stpolten,Nextbike,St.Pölten,AT,48.2058,15.6232,,,,
394,['Nextbike GmbH'],/v2/networks/nextbike-modling,nextbike-modling,Nextbike,Mödling,AT,48.1047,16.3202,,,,
395,['Nextbike GmbH'],/v2/networks/nextbike-sursee,nextbike-sursee,Nextbike,Sursee,CH,47.1713,8.10877,,,,
396,['Nextbike GmbH'],/v2/networks/nextbike-tubingen,nextbike-tubingen,Nextbike,Tübingen,DE,48.5203,9.05591,,,,
397,['Nextbike GmbH'],/v2/networks/nextbike-luzern,nextbike-luzern,Nextbike,Luzern,CH,47.0472,8.30446,,,,
398,['Nextbike GmbH'],/v2/networks/sixt-riga,sixt-riga,SiXT,Rīga,LV,56.9453,24.1033,,,,
399,['Nextbike GmbH'],/v2/networks/metropolradruhr-dortmund,metropolradruhr-dortmund,metropolradruhr,Dortmund,DE,51.5141,7.46255,,,,
400,['Nextbike GmbH'],/v2/networks/metropolradruhr-bochum,metropolradruhr-bochum,metropolradruhr,Bochum,DE,51.4813,7.2133,,,,
401,['Nextbike GmbH'],/v2/networks/metropolradruhr-bottrop,metropolradruhr-bottrop,metropolradruhr,Bottrop,DE,51.5263,6.94611,,,,
402,['Nextbike GmbH'],/v2/networks/metropolradruhr-duisburg,metropolradruhr-duisburg,metropolradruhr,Duisburg,DE,51.4487,6.77513,,,,
403,['Nextbike GmbH'],/v2/networks/metropolradruhr-essen,metropolradruhr-essen,metropolradruhr,Essen,DE,51.4425,7.02301,,,,
404,['Nextbike GmbH'],/v2/networks/metropolradruhr-gelsenkirchen,metropolradruhr-gelsenkirchen,metropolradruhr,Gelsenkirchen,DE,51.5404,7.07039,,,,
405,['Nextbike GmbH'],/v2/networks/metropolradruhr-hamm,metropolradruhr-hamm,metropolradruhr,Hamm,DE,51.6775,7.84836,,,,
406,['Nextbike GmbH'],/v2/networks/metropolradruhr-herne,metropolradruhr-herne,metropolradruhr,Herne,DE,51.5363,7.21493,,,,
407,['Nextbike GmbH'],/v2/networks/metropolradruhr-mulheim-adr,metropolradruhr-mulheim-adr,metropolradruhr,Mülheim a.d.R.,DE,51.4308,6.87401,,,,
408,['Nextbike GmbH'],/v2/networks/metropolradruhr-oberhausen,metropolradruhr-oberhausen,metropolradruhr,Oberhausen,DE,51.4936,6.85169,,,,
409,['Nextbike GmbH'],/v2/networks/nextbike-munchen,nextbike-munchen,Nextbike,München,DE,48.1358,11.5356,,,,
410,['Nextbike GmbH'],/v2/networks/sixt-jurmala,sixt-jurmala,SiXT,Jūrmala,LV,56.9732,23.8225,,,,
411,['Nextbike GmbH'],/v2/networks/nextbike-wachau,nextbike-wachau,Nextbike,Wachau,AT,48.3188,15.4166,,,,
412,['Nextbike GmbH'],/v2/networks/nextbike-tulln,nextbike-tulln,Nextbike,Tulln,AT,48.3269,16.0569,,,,
413,['Nextbike GmbH'],/v2/networks/nextbike-triestingtal,nextbike-triestingtal,Nextbike,Triestingtal,AT,47.9421,16.1149,,,,
414,['Nextbike GmbH'],/v2/networks/nextbike-thermenregion,nextbike-thermenregion,Nextbike,Thermenregion,AT,47.9892,16.2646,,,,
415,['Nextbike GmbH'],/v2/networks/nextbike-flensburg,nextbike-flensburg,Nextbike,Flensburg,DE,54.7804,9.43571,,,,
416,['Nextbike GmbH'],/v2/networks/wrm-wroclaw,wrm-wroclaw,WRM,Wrocław,PL,51.1097,17.0485,,,,
417,['Nextbike GmbH'],/v2/networks/nextbike-romerland,nextbike-romerland,Nextbike,Römerland,AT,48.0909,16.853,,,,
418,['Nextbike GmbH'],/v2/networks/nextbike-offenburg,nextbike-offenburg,Nextbike,Offenburg,DE,48.4721,7.94243,,,,
419,['Nextbike GmbH'],/v2/networks/nextbike-wrneustadt,nextbike-wrneustadt,Nextbike,Wr.Neustadt,AT,47.8167,16.2426,,,,
420,['Nextbike GmbH'],/v2/networks/nextbike-potsdam,nextbike-potsdam,Nextbike,Potsdam,DE,52.3997,13.0676,,,,
421,['Nextbike GmbH'],/v2/networks/nextbike-gutersloh,nextbike-gutersloh,Nextbike,Gütersloh,DE,51.9049,8.39275,,,,
422,['Nextbike GmbH'],/v2/networks/nextbike-unteres-traisental,nextbike-unteres-traisental,Nextbike,Unteres Traisental,AT,48.1111,15.8176,,,,
423,['Nextbike GmbH'],/v2/networks/nextbike-haag,nextbike-haag,Nextbike,Haag,AT,48.0643,14.7368,,,,
424,['Nextbike GmbH'],/v2/networks/nextbike-marchfeld,nextbike-marchfeld,Nextbike,Marchfeld,AT,48.2407,16.9093,,,,
425,['Nextbike GmbH'],/v2/networks/nextbike-10vorwien,nextbike-10vorwien,Nextbike,10vorWien,AT,48.3403,16.279,,,,
426,['Nextbike GmbH'],/v2/networks/usedomrad-usedom,usedomrad-usedom,UsedomRad,Usedom,DE,53.9779,13.9925,,,,
427,['Nextbike GmbH'],/v2/networks/nextbike-norderstedt,nextbike-norderstedt,Nextbike,Norderstedt,DE,53.6969,10.002,,,,
428,['Nextbike GmbH'],/v2/networks/swa-rad-augsburg,swa-rad-augsburg,SWA Rad,Augsburg,DE,48.3647,10.8916,,,,
429,['Nextbike GmbH'],/v2/networks/nextbike-traisen-golsental,nextbike-traisen-golsental,Nextbike,Traisen-Gölsental,AT,47.9439,15.639,,,,
430,['Nextbike GmbH'],/v2/networks/nextbike-lunz-am-see,nextbike-lunz-am-see,Nextbike,Lunz am See,AT,47.8618,15.0348,,,,
431,['Nextbike GmbH'],/v2/networks/nextbike-konya,nextbike-konya,Nextbike,Konya,TR,37.8715,32.4957,,,,
432,['Nextbike GmbH'],/v2/networks/nextbike-laa-an-der-thaya,nextbike-laa-an-der-thaya,Nextbike,Laa an der Thaya,AT,48.7196,16.3878,,,,
433,['Nextbike GmbH'],/v2/networks/nextbike-sudheide,nextbike-sudheide,Nextbike,Südheide,AT,48.1077,16.3937,,,,
434,['Nextbike GmbH'],/v2/networks/nextbike-limassol,nextbike-limassol,Nextbike,Limassol,CY,34.6823,33.0464,,,,
435,['Nextbike GmbH'],/v2/networks/prm-poznan,prm-poznan,PRM,Poznań,PL,52.4077,16.9323,,,,
436,['Nextbike GmbH'],/v2/networks/nextbike-christchurch,nextbike-christchurch,Nextbike,Christchurch,NZ,-43.5341,172.621,,,,
437,['Nextbike GmbH'],/v2/networks/vrn-heidelberg,vrn-heidelberg,VRN,Heidelberg,DE,49.4023,8.67577,,,,
438,['Nextbike GmbH'],/v2/networks/vrn-mannheim,vrn-mannheim,VRN,Mannheim,DE,49.4869,8.45638,,,,
439,['Nextbike GmbH'],/v2/networks/nextbike-tullnerfeld-west,nextbike-tullnerfeld-west,Nextbike,Tullnerfeld West,AT,48.2994,15.9065,,,,
440,['Nextbike GmbH'],/v2/networks/stadtrad-innsbruck,stadtrad-innsbruck,Stadtrad,Innsbruck,AT,47.2632,11.3961,,,,
441,['Nextbike GmbH'],/v2/networks/nextbike-nicosia,nextbike-nicosia,Nextbike,Nicosia,CY,35.1728,33.3653,,,,
442,['Nextbike GmbH'],/v2/networks/opole-bike-opole,opole-bike-opole,Opole Bike,Opole,PL,50.6633,17.9239,,,,
443,['Nextbike GmbH'],/v2/networks/veturilo-warszawa,veturilo-warszawa,VETURILO,Warszawa,PL,52.2265,21.0127,,,,
444,['Nextbike GmbH'],/v2/networks/nextbike-hollabrunn,nextbike-hollabrunn,Nextbike,Hollabrunn,AT,48.562,16.0785,,,,
445,['Nextbike GmbH'],/v2/networks/nextbike-wienerwald,nextbike-wienerwald,Nextbike,WienerWald,AT,48.1926,16.141,,,,
446,['Nextbike GmbH'],/v2/networks/nextbike-dobrich,nextbike-dobrich,Nextbike,Dobrich,BG,43.567,27.8285,,,,
447,['Nextbike GmbH'],/v2/networks/bykystations-uae-dubai,bykystations-uae-dubai,BYKYstations UAE,Dubai,AE,25.2435,55.2722,,,,
448,['Nextbike GmbH'],/v2/networks/nextbike-zagreb,nextbike-zagreb,Nextbike,Zagreb,HR,45.7984,15.9789,,,,
449,['Nextbike GmbH'],/v2/networks/ebikestation-bietigheim-bissingen,ebikestation-bietigheim-bissingen,ebikestation,Bietigheim-Bissingen,DE,48.9495,9.12518,,,,
450,['Nextbike GmbH'],/v2/networks/nextbike-bath,nextbike-bath,Nextbike,Bath,GB,51.3793,-2.35279,,,,
451,['Nextbike GmbH'],/v2/networks/nextbike-glasgow,nextbike-glasgow,Nextbike,Glasgow,GB,55.8589,-4.25549,,,,
452,['Nextbike GmbH'],/v2/networks/belfastbikes-belfast,belfastbikes-belfast,BelfastBikes,Belfast,GB,54.5969,-5.92918,,,,
453,['Nextbike GmbH'],/v2/networks/nextbike-stirling,nextbike-stirling,Nextbike,Stirling,GB,56.1165,-3.9369,,,,
454,['Nextbike GmbH'],/v2/networks/biker-bialystok-bialystok,biker-bialystok-bialystok,BIKER Białystok,Białystok,PL,53.2655,23.3343,,,,
455,['Nextbike GmbH'],/v2/networks/krm-konstancinski-konstancin-jeziorna,krm-konstancinski-konstancin-jeziorna,KRM Konstanciński,Konstancin Jeziorna,PL,52.0759,21.1161,,,,
456,['Nextbike GmbH'],/v2/networks/grad-sibenik-sibenik,grad-sibenik-sibenik,Grad Šibenik,Šibenik,HR,43.733,15.8982,,,,
457,['Nextbike GmbH'],/v2/networks/karbis-seferihisar,karbis-seferihisar,KARBIS,Seferihisar,TR,38.1962,26.8386,,,,
458,['Nextbike GmbH'],/v2/networks/lrm-lublin-lublin,lrm-lublin-lublin,LRM Lublin,Lublin,PL,51.2469,22.5697,,,,
459,['Nextbike GmbH'],/v2/networks/ebikestation-schwieberdingen,ebikestation-schwieberdingen,ebikestation,Schwieberdingen,DE,48.8723,9.07419,,,,
460,['Nextbike GmbH'],/v2/networks/healthy-ride-pittsburgh-pittsburgh,healthy-ride-pittsburgh-pittsburgh,Healthy Ride,Pittsburgh,US,40.4459,-79.9945,,,,
461,['Nextbike GmbH'],/v2/networks/grm-grodzisk-grodzisk-mazowiecki,grm-grodzisk-grodzisk-mazowiecki,GRM Grodzisk,Grodzisk Mazowiecki,PL,52.113,20.6265,,,,
462,['Nextbike GmbH'],/v2/networks/nextbike-quickborn,nextbike-quickborn,Nextbike,Quickborn,DE,53.7333,9.90272,,,,
463,['Nextbike GmbH'],/v2/networks/jerseybike-hoboken,jerseybike-hoboken,JerseyBike,Hoboken,US,40.7447,-74.0341,,,,
464,['Nextbike GmbH'],/v2/networks/jerseybike-weehawken,jerseybike-weehawken,JerseyBike,Weehawken,US,40.7683,-74.0216,,,,
465,['Nextbike GmbH'],/v2/networks/ibike-king-abdullah-economic-city,ibike-king-abdullah-economic-city,iBike,King Abdullah Economic City,SA,22.4053,39.0815,,,,
466,['Nextbike GmbH'],/v2/networks/vrn-ludwigshafen,vrn-ludwigshafen,VRN,Ludwigshafen,DE,49.4741,8.43287,,,,
467,['Nextbike GmbH'],/v2/networks/nextbike-university-of-warwick,nextbike-university-of-warwick,Nextbike,Warwick,GB,52.3815,-1.56159,,,,
468,['Nextbike GmbH'],/v2/networks/ebikestation-waiblingen,ebikestation-waiblingen,ebikestation,Waiblingen,DE,48.8333,9.31667,,,,
469,['Nextbike GmbH'],/v2/networks/vrn-speyer,vrn-speyer,VRN,Speyer,DE,49.3126,8.45295,,,,
470,['Nextbike GmbH'],/v2/networks/nextbike-lviv,nextbike-lviv,Nextbike,Lviv,UA,49.8402,24.0182,,,,
471,['Nextbike GmbH'],/v2/networks/nextbike-wurzburg,nextbike-wurzburg,Nextbike,Würzburg,DE,49.8,9.93333,,,,
472,['Nextbike GmbH'],/v2/networks/skybike-west-palm-beach-west-palm-beach-florida,skybike-west-palm-beach-west-palm-beach-florida,Skybike,West Palm Beach Florida,US,26.7125,-80.0821,,,,
473,['Nextbike GmbH'],/v2/networks/nextbike-serfaus,nextbike-serfaus,Nextbike,Serfaus,AT,47.0387,10.6048,,,,
474,['Nextbike GmbH'],/v2/networks/ebikestation-vaihingen-an-der-enz,ebikestation-vaihingen-an-der-enz,ebikestation,Vaihingen an der Enz,DE,48.9334,8.96121,,,,
475,['Nextbike GmbH'],/v2/networks/ebikestation-herrenberg,ebikestation-herrenberg,ebikestation,Herrenberg,DE,48.595,8.86716,,,,
476,['Nextbike GmbH'],/v2/networks/ebikestation-goppingen,ebikestation-goppingen,ebikestation,Göppingen,DE,48.7054,9.65125,,,,
477,['Nextbike GmbH'],/v2/networks/ebikestation-ludwigsburg,ebikestation-ludwigsburg,ebikestation,Ludwigsburg,DE,48.8941,9.19546,,,,
478,['Nextbike GmbH'],/v2/networks/grad-gospic-gospic,grad-gospic-gospic,Grad Gospić,Gospić,HR,44.5469,15.375,,,,
479,['Nextbike GmbH'],/v2/networks/ebikestation-holzgerlingen,ebikestation-holzgerlingen,ebikestation,Holzgerlingen,DE,48.6388,9.0096,,,,
480,['Nextbike GmbH'],/v2/networks/ebikestation-filderstadt,ebikestation-filderstadt,ebikestation,Filderstadt,DE,48.6588,9.22585,,,,
481,['Nextbike GmbH'],/v2/networks/ebikestation-kirchheim-am-neckar,ebikestation-kirchheim-am-neckar,ebikestation,Kirchheim am Neckar,DE,49.04,9.14441,,,,
482,['Nextbike GmbH'],/v2/networks/ebikestation-schorndorf,ebikestation-schorndorf,ebikestation,Schorndorf,DE,48.8015,9.52962,,,,
483,['Nextbike GmbH'],/v2/networks/ebikestation-fellbach,ebikestation-fellbach,ebikestation,Fellbach,DE,48.8166,9.27967,,,,
484,['Nextbike GmbH'],/v2/networks/ebikestation-remseck-am-neckar,ebikestation-remseck-am-neckar,ebikestation,Remseck am Neckar,DE,48.8767,9.26179,,,,
485,['Nextbike GmbH'],/v2/networks/nextbike-malta,nextbike-malta,Nextbike,Malta,MT,35.9192,14.4889,,,,
486,['Nextbike GmbH'],/v2/networks/grad-karlovac-karlovac,grad-karlovac-karlovac,Grad Karlovac,Karlovac,HR,45.4905,15.5503,,,,
487,['Nextbike GmbH'],/v2/networks/flashfleet-kent-state-university-kent-state-university,flashfleet-kent-state-university-kent-state-university,Flashfleet Kent State University,Kent State,US,41.1492,-81.3363,,,,
488,['Nextbike GmbH'],/v2/networks/grad-slavonski-brod-slavonski-brod,grad-slavonski-brod-slavonski-brod,Grad Slavonski Brod,Slavonski Brod,HR,45.1656,18.0183,,,,
489,['Nextbike GmbH'],/v2/networks/nextbike-london,nextbike-london,Nextbike,London,GB,51.4862,-0.11966,,,,
490,['Nextbike GmbH'],/v2/networks/santander-cycles-mk-milton-keynes,santander-cycles-mk-milton-keynes,Santander Cycles MK,Milton Keynes,GB,52.0406,-0.759417,,,,
491,['Nextbike GmbH'],/v2/networks/bykystations-uae-al-ain,bykystations-uae-al-ain,BYKYstations UAE,Al Ain,AE,24.2989,54.6979,,,,
492,['Nextbike GmbH'],/v2/networks/nextbike-hergiswil,nextbike-hergiswil,Nextbike,Hergiswil,CH,46.9905,8.30829,,,,
493,['Nextbike GmbH'],/v2/networks/grad-makarska-makarska,grad-makarska-makarska,Grad Makarska,Makarska,HR,43.2992,17.0184,,,,
494,['Nextbike GmbH'],/v2/networks/opcina-brinje-brinje,opcina-brinje-brinje,Općina Brinje,Brinje,HR,44.9977,15.1258,,,,
495,['Nextbike GmbH'],/v2/networks/grad-zadar-zadar,grad-zadar-zadar,Grad Zadar,Zadar,HR,44.0058,15.2183,,,,
496,['Nextbike GmbH'],/v2/networks/grad-vukovar-vukovar,grad-vukovar-vukovar,Nextbike,Vukovar,HR,45.3575,18.9895,,,,
497,['Nextbike GmbH'],/v2/networks/opcina-lastovo-lastovo,opcina-lastovo-lastovo,Općina Lastovo,Lastovo,HR,42.7626,16.8719,,,,
498,['Nextbike GmbH'],/v2/networks/lodzki-rower-publiczny-lodz,lodzki-rower-publiczny-lodz,Łódzki Rower Publiczny,Lódź,PL,51.7689,19.4554,,,,
499,['Nextbike GmbH'],/v2/networks/lrm-lublin-swidnik,lrm-lublin-swidnik,LRM Lublin,Świdnik,PL,51.2194,22.6988,,,,
500,['Nextbike GmbH'],/v2/networks/vrn-bensheim,vrn-bensheim,VRN,Bensheim,DE,49.6803,8.6189,,,,
501,['Nextbike GmbH'],/v2/networks/grad-ivanic-grad-ivanic-grad,grad-ivanic-grad-ivanic-grad,Grad Ivanić-Grad,Ivanic Grad,HR,45.7062,16.3919,,,,
502,['Nextbike GmbH'],/v2/networks/stalowa-wola-miasto-rowerow-stalowa-wola,stalowa-wola-miasto-rowerow-stalowa-wola,Stalowa Wola miasto rowerów,Stalowa Wola,PL,50.57,22.0626,,,,
503,['Nextbike GmbH'],/v2/networks/katowice-bike-katowice,katowice-bike-katowice,Katowice Bike,Katowice,PL,50.2594,19.0215,,,,
504,['Nextbike GmbH'],/v2/networks/bike-s-srm-szczecin,bike-s-srm-szczecin,Bike_S SRM,Szczecin,PL,53.4301,14.5498,,,,
505,['Nextbike GmbH'],/v2/networks/ordu-bisikletli-ordu,ordu-bisikletli-ordu,Ordu Bisikletli,Ordu,TR,40.9702,37.8707,,,,
506,['Nextbike GmbH'],/v2/networks/nextbike-sarajevo,nextbike-sarajevo,Nextbike,Sarajevo,BA,43.85,18.39,,,,
507,['Nextbike GmbH'],/v2/networks/co-bikes-exeter,co-bikes-exeter,Co-bikes,Exeter,GB,50.7272,-3.53605,,,,
508,['Nextbike GmbH'],/v2/networks/rower-gminny-michalowice-michalowice,rower-gminny-michalowice-michalowice,Rower Gminny Michałowice,Michałowice,PL,52.1679,20.8877,,,,
509,['Nextbike GmbH'],/v2/networks/nextbike-auckland-waterfront,nextbike-auckland-waterfront,Nextbike,Auckland Waterfront,NZ,-36.841,174.763,,,,
510,['Nextbike GmbH'],/v2/networks/nextbike-berlin,nextbike-berlin,Nextbike,Berlin,DE,52.5087,13.3563,,,,
511,['Nextbike GmbH'],/v2/networks/system-legnicki-rower-miejski-slrm-legnica,system-legnicki-rower-miejski-slrm-legnica,System Legnicki Rower Miejski (SLRM),Legnica,PL,51.2059,16.1667,,,,
512,['Nextbike GmbH'],/v2/networks/nextbike-aruba,nextbike-aruba,Nextbike,Aruba,AW,12.5137,-69.9757,,,,
513,['Nextbike GmbH'],/v2/networks/nextbike-hyderabad,nextbike-hyderabad,Nextbike,Hyderabad,IN,17.38,78.4725,,,,
514,['Nextbike GmbH'],/v2/networks/sixt-jalgrattarent-tallinn,sixt-jalgrattarent-tallinn,SIXT jalgrattarent,Tallinn,EE,59.4325,24.7295,,,,
515,['Nextbike GmbH'],/v2/networks/veturilo-stacje-sponsorskie-nextbike-veturilo,veturilo-stacje-sponsorskie-nextbike-veturilo,Stacje Sponsorskie Nextbike Veturilo,Warszawa,PL,52.2265,21.0127,,,,
516,['Nextbike GmbH'],/v2/networks/bike4all-byblos,bike4all-byblos,bike4all,Byblos,LB,34.1236,35.6511,,,,
517,['Nextbike GmbH'],/v2/networks/chartered-bike-bhopal-bhopal,chartered-bike-bhopal-bhopal,Chartered Bike,Bhopal,IN,23.2467,77.411,,,,
518,['Nextbike GmbH'],/v2/networks/nextbike-rotterdam,nextbike-rotterdam,Nextbike,Rotterdam,IN,51.9224,4.47265,,,,
519,['Nextbike GmbH'],/v2/networks/wk-bike-bremen-bremen,wk-bike-bremen-bremen,WK-Bike,Bremen,DE,53.0781,8.80132,,,,
520,['Nextbike GmbH'],/v2/networks/vrn-worms,vrn-worms,VRN,Worms,DE,49.6394,8.34618,,,,
521,['Nextbike GmbH'],/v2/networks/nextbike-stans,nextbike-stans,Nextbike,Stans,CH,46.9593,8.36836,,,,
522,['Nextbike GmbH'],/v2/networks/nextbike-victoria,nextbike-victoria,Nextbike,Victoria,CA,48.4298,-123.361,,,,
523,['Nextbike GmbH'],/v2/networks/nextbike-maastricht,nextbike-maastricht,Nextbike,Maastricht,NL,50.8514,5.69129,,,,
524,['Nextbike GmbH'],/v2/networks/nextbike-stansstad,nextbike-stansstad,Nextbike,Stansstad,CH,46.9801,8.34098,,,,
525,['Nextbike GmbH'],/v2/networks/byky-bikes-kuwait,byky-bikes-kuwait,BYKY Bikes,Kuwait,KW,29.3632,47.487,,,,
526,['Nextbike GmbH'],/v2/networks/nextbike-horw,nextbike-horw,Nextbike,Horw,CH,47.0188,8.30828,,,,
527,['Nextbike GmbH'],/v2/networks/vrn-burstadt,vrn-burstadt,VRN,Bürstadt,DE,49.6461,8.44917,,,,
528,['Nextbike GmbH'],/v2/networks/gliwicki-rower-miejski-sgrm-gliwice,gliwicki-rower-miejski-sgrm-gliwice,Gliwicki Rower Miejski (SGRM),Gliwice,PL,50.2918,18.669,,,,
529,['Nextbike GmbH'],/v2/networks/prm-stacje-sponsorskie-nextbike-prm,prm-stacje-sponsorskie-nextbike-prm,Stacje Sponsorskie Nextbike PRM,Poznań,PL,52.4077,16.9323,,,,
530,['Nextbike GmbH'],/v2/networks/nextbike-gross-enzersdorf,nextbike-gross-enzersdorf,Nextbike,Groß Enzersdorf,AT,48.1986,16.5496,,,,
531,['Nextbike GmbH'],/v2/networks/nextbike-klagenfurt,nextbike-klagenfurt,Nextbike,Klagenfurt,AT,46.6335,14.3085,,,,
532,['Nextbike GmbH'],/v2/networks/vrn-kaiserslautern,vrn-kaiserslautern,VRN,Kaiserslautern,DE,49.4413,7.75566,,,,
533,['Nextbike GmbH'],/v2/networks/radomski-rower-miejski-radom,radomski-rower-miejski-radom,Radomski Rower Miejski,Radom,PL,51.3994,21.1655,,,,
534,['Nextbike GmbH'],/v2/networks/radomski-rower-miejski-stacje-sponsorskie-radom,radomski-rower-miejski-stacje-sponsorskie-radom,Stacje Sponsorskie Radom,Radom,PL,51.3994,21.1655,,,,
535,['Nextbike GmbH'],/v2/networks/smartbike-vijayawada-vijayawada,smartbike-vijayawada-vijayawada,Smartbike Vijayawada,Vijayawada,IN,16.5109,80.6313,,,,
536,['Nextbike GmbH'],/v2/networks/sitycleta-las-palmas-las-palmas-de-gran-canaria,sitycleta-las-palmas-las-palmas-de-gran-canaria,Sitycleta,Las Palmas de Gran Canaria,ES,28.1236,-15.4366,,,,
537,['Nextbike GmbH'],/v2/networks/system-rowerow-miejskich-w-pszczynie-pszczyna,system-rowerow-miejskich-w-pszczynie-pszczyna,System Rowerów Miejskich w Pszczynie,Pszczyna,PL,49.9757,18.9463,,,,
538,['Nextbike GmbH'],/v2/networks/zgierski-rower-miejski-zgierz,zgierski-rower-miejski-zgierz,Zgierski Rower Miejski,Zgierz,PL,51.8602,19.4118,,,,
539,['Nextbike GmbH'],/v2/networks/tyski-rower-miejski-tychy,tyski-rower-miejski-tychy,Tyski Rower Miejski,Tychy,PL,50.1304,18.9436,,,,
540,['Nextbike GmbH'],/v2/networks/nextbike-amstetten,nextbike-amstetten,Nextbike,Amstetten,AT,48.1218,14.8774,,,,
541,['Nextbike GmbH'],/v2/networks/grad-velika-gorica-velika-gorica,grad-velika-gorica-velika-gorica,Grad Velika Gorica,Velika Gorica,HR,45.7161,16.0683,,,,
542,['Nextbike GmbH'],/v2/networks/grad-sisak-sisak,grad-sisak-sisak,Grad Sisak,Sisak,HR,45.4875,16.3753,,,,
543,['Nextbike GmbH'],/v2/networks/nextbike-salzburg,nextbike-salzburg,Nextbike,Salzburg ,AT,47.8014,13.0458,,,,
544,['Nextbike GmbH'],/v2/networks/ok-bike-kedzierzyn-kozle,ok-bike-kedzierzyn-kozle,OK Bike,Kędzierzyn-Koźle,PL,50.3421,18.2049,,,,
545,['Nextbike GmbH'],/v2/networks/kolobrzeski-rower-miejski-kolobrzeg,kolobrzeski-rower-miejski-kolobrzeg,Kołobrzeski Rower Miejski,Kołobrzeg,PL,54.1762,15.5761,,,,
546,['Nextbike GmbH'],/v2/networks/siedlecki-rower-miejski-siedlce,siedlecki-rower-miejski-siedlce,Siedlecki Rower Miejski,Siedlce,PL,52.1668,22.2891,,,,
547,['Nextbike GmbH'],/v2/networks/grad-metkovic-metkovic,grad-metkovic-metkovic,Grad Metković,Metković,HR,43.0654,17.642,,,,
548,['Nextbike GmbH'],/v2/networks/jastrebarsko-jastrebarsko,jastrebarsko-jastrebarsko,Nextbike,Jastrebarsko,HR,45.6692,15.6541,,,,
549,['Nextbike GmbH'],/v2/networks/grad-drnis-drnis,grad-drnis-drnis,Nextbike,Drniš,HR,43.8425,16.1197,,,,
550,['Nextbike GmbH'],/v2/networks/nextbike-tuzla,nextbike-tuzla,Nextbike,Tuzla,BA,44.5392,18.675,,,,
551,['Nextbike GmbH'],/v2/networks/nextbike-panama,nextbike-panama,Nextbike,Panama,IN,8.95284,-79.5369,,,,
552,['Nextbike GmbH'],/v2/networks/porec-bike-share-porec,porec-bike-share-porec,Porec bike share,Poreč,HR,45.2292,13.6035,,,,
553,['Nextbike GmbH'],/v2/networks/arriva-nitra,arriva-nitra,Arriva,Nitra,SK,48.3088,18.0783,,,,
554,['Nextbike GmbH'],/v2/networks/kaliski-rower-miejski-kalisz,kaliski-rower-miejski-kalisz,Kaliski Rower Miejski,Kalisz,PL,51.7608,18.0746,,,,
555,['Nextbike GmbH'],/v2/networks/nextbike-marburg,nextbike-marburg,Nextbike,Marburg,DE,50.8019,8.76444,,,,
556,['Nextbike GmbH'],/v2/networks/bubi,bubi,MOL Bubi,Budapest,HU,47.497912,19.040235,,,,
557,['Nextbike GmbH'],/v2/networks/nextbike-russelsheim-am-main,nextbike-russelsheim-am-main,Nextbike,Rüsselsheim am Main,DE,49.9881,8.42142,,,,
558,['Nextbike GmbH'],/v2/networks/pruszkowski-rower-miejski-pruszkow,pruszkowski-rower-miejski-pruszkow,Pruszkowski Rower Miejski,Pruszków,PL,52.1637,20.8018,,,,
559,['Nextbike GmbH'],/v2/networks/rower-miejski-szamotuly-rms-szamotuly,rower-miejski-szamotuly-rms-szamotuly,Rower Miejski Szamotuły,Szamotuły,PL,52.6112,16.5819,,,,
560,['Nextbike GmbH'],/v2/networks/nextbike-dordrecht,nextbike-dordrecht,Nextbike,Dordrecht,NL,51.7833,4.69391,,,,
561,['Nextbike GmbH'],/v2/networks/vrn-heppenheim,vrn-heppenheim,VRN,Heppenheim,DE,49.6431,8.63889,,,,
562,['Nextbike GmbH'],/v2/networks/czestochowski-rower-miejski-czestochowa,czestochowski-rower-miejski-czestochowa,Częstochowski Rower Miejski,Częstochowa,PL,50.812,19.1375,,,,
563,['Nextbike GmbH'],/v2/networks/rower-miejski-w-ostrowie-wielkopolskim-ostrow-wielkopolski,rower-miejski-w-ostrowie-wielkopolskim-ostrow-wielkopolski,Rower Miejski w Ostrowie Wielkopolskim,Ostrów Wielkopolski,PL,51.65,17.8253,,,,
564,['Nextbike GmbH'],/v2/networks/jerseybike-bayonne,jerseybike-bayonne,JerseyBike,Bayonne,US,40.6668,-74.1154,,,,
565,['Nextbike GmbH'],/v2/networks/jerseybike-guttenberg,jerseybike-guttenberg,JerseyBike,Guttenberg,US,40.792,-74.0035,,,,
566,['Nextbike GmbH'],/v2/networks/jerseybike-west-new-york,jerseybike-west-new-york,JerseyBike,West New York,US,40.7882,-74.0142,,,,
567,['Nextbike GmbH'],/v2/networks/dundee-navigogo-dundee,dundee-navigogo-dundee,Dundee-Navigogo,Dundee,GB,56.4623,-2.97071,,,,
568,['Nextbike GmbH'],/v2/networks/piaseczynski-rower-miejski-piaseczno,piaseczynski-rower-miejski-piaseczno,Piaseczyński Rower Miejski,Piaseczno,PL,52.0733,21.0269,,,,
569,['Nextbike GmbH'],/v2/networks/nextbike-kassel,nextbike-kassel,Nextbike,Kassel,DE,51.3127,9.47975,,,,
570,['Nextbike GmbH'],/v2/networks/nextbike-sarnen,nextbike-sarnen,Nextbike,Sarnen,CH,46.8963,8.24614,,,,
571,['Nextbike GmbH'],/v2/networks/nextbike-wolfenschiessen,nextbike-wolfenschiessen,Nextbike,Wolfenschiessen,CH,46.9079,8.39767,,,,
572,['Nextbike GmbH'],/v2/networks/nextbike-oberdorf,nextbike-oberdorf,Nextbike,Oberdorf,CH,46.9563,8.3884,,,,
573,['Nextbike GmbH'],/v2/networks/jerseybike-north-bergen,jerseybike-north-bergen,JerseyBike,North Bergen,US,40.8045,-74.0135,,,,
574,['Nextbike GmbH'],/v2/networks/nextbike-giessen,nextbike-giessen,Nextbike,Gießen,DE,50.5943,8.68097,,,,
575,['Nextbike GmbH'],/v2/networks/vrn-weinheim,vrn-weinheim,VRN,Weinheim,DE,49.545,8.66027,,,,
576,['Nextbike GmbH'],/v2/networks/biker-bialystok-orlen-bialystok,biker-bialystok-orlen-bialystok,BIKER Białystok - Orlen,Białystok,PL,53.1342,23.1485,,,,
577,['Nextbike GmbH'],/v2/networks/lrm-lublin-orlen-lublin,lrm-lublin-orlen-lublin,LRM Lublin - Orlen,Lublin,PL,51.2469,22.5697,,,,
578,['Nextbike GmbH'],/v2/networks/wrm-orlen-wroclaw,wrm-orlen-wroclaw,WRM - Orlen,Wrocław,PL,51.1097,17.0485,,,,
579,['Nextbike GmbH'],/v2/networks/lodzki-rower-publiczny-orlen-lodz,lodzki-rower-publiczny-orlen-lodz,Łódzki Rower Publiczny - Orlen,Łódź,PL,51.7689,19.4554,,,,
580,['Nextbike GmbH'],/v2/networks/katowice-bike-orlen-katowice,katowice-bike-orlen-katowice,Katowice Bike - Orlen,Katowice,PL,50.2594,19.0215,,,,
581,['Nextbike GmbH'],/v2/networks/veturilo-orlen-warszawa,veturilo-orlen-warszawa,VETURILO - Orlen,Warszawa,PL,52.2265,21.0127,,,,
582,['Nextbike GmbH'],/v2/networks/nextbike-cardiff,nextbike-cardiff,Nextbike,Cardiff,GB,51.4848,-3.19062,,,,
583,['Nextbike GmbH'],/v2/networks/vrn-hockenheim,vrn-hockenheim,VRN,Hockenheim,DE,49.3227,8.54258,,,,
584,['Nextbike GmbH'],/v2/networks/vrn-schwetzingen,vrn-schwetzingen,VRN,Schwetzingen,DE,49.3863,8.5756,,,,
585,['Nextbike GmbH'],/v2/networks/nextbike-ennetmoos,nextbike-ennetmoos,Nextbike,Ennetmoos,CH,46.9573,8.3377,,,,
586,['Nextbike GmbH'],/v2/networks/vrn-eppelheim,vrn-eppelheim,VRN,Eppelheim,DE,49.4025,8.6331,,,,
587,['Nextbike GmbH'],/v2/networks/nextbike-university-of-surrey,nextbike-university-of-surrey,Nextbike,Surrey,GB,51.2422,-0.590594,,,,
588,['Nextbike GmbH'],/v2/networks/santander-cycles-swansea-swansea-university,santander-cycles-swansea-swansea-university,Santander Cycles,Swansea,GB,51.6106,-3.9764,,,,
589,['Nextbike GmbH'],/v2/networks/nextbike-kussnacht-sz,nextbike-kussnacht-sz,Nextbike,Küssnacht SZ,CH,47.0856,8.44145,,,,
590,['Nextbike GmbH'],/v2/networks/nextbike-erfurt,nextbike-erfurt,Nextbike,Erfurt,DE,50.9785,11.0334,,,,
591,['Nextbike GmbH'],/v2/networks/bl-bike-banja-luka,bl-bike-banja-luka,BL bike,Banja Luka,BA,44.775,17.1994,,,,
592,['Nextbike GmbH'],/v2/networks/koszalinski-rower-miejski-koszalin,koszalinski-rower-miejski-koszalin,Koszaliński Rower Miejski,Koszalin,PL,54.2026,16.1678,,,,
593,['Nextbike GmbH'],/v2/networks/sosnowiecki-rower-miejski-sosnowiec,sosnowiecki-rower-miejski-sosnowiec,Sosnowiecki Rower Miejski,Sosnowiec,PL,50.2823,19.1269,,,,
594,['Nextbike GmbH'],/v2/networks/zabrzanski-rower-miejski-zabrze,zabrzanski-rower-miejski-zabrze,Zabrzański Rower Miejski,Zabrze,PL,50.3066,18.7864,,,,
595,['Nextbike GmbH'],/v2/networks/jerseybike-liberty-state-park,jerseybike-liberty-state-park,JerseyBike,Liberty State Park,US,40.7051,-74.052,,,,
596,['Nextbike GmbH'],/v2/networks/chartered-bike-bhopal-tata-motors,chartered-bike-bhopal-tata-motors,Chartered Bike,Bhopal,IN,18.6556,73.813,,,,
597,['Nextbike GmbH'],/v2/networks/pobiedziski-rower-gminny-pobiedziska,pobiedziski-rower-gminny-pobiedziska,Pobiedziski Rower Gminny,Pobiedziska,PL,52.4765,17.2866,,,,
598,['Nextbike GmbH'],/v2/networks/lahr-pedelecs-lahr,lahr-pedelecs-lahr,Nextbike,Lahr,DE,48.3396,7.87376,,,,
599,['Nextbike GmbH'],/v2/networks/berlin-buch-campus-berlin-buch,berlin-buch-campus-berlin-buch,Berlin-Buch Campus,Berlin,DE,52.6364,13.5029,,,,
600,['Nextbike GmbH'],/v2/networks/nextbike-jastrzebie-zdroj,nextbike-jastrzebie-zdroj,System Rowerów Miejskich Jastrzębie Zdrój,Jastrzębie-Zdrój,PL,49.9497,18.599,,,,
601,['Nextbike GmbH'],/v2/networks/smartbike-delhi-delhi,smartbike-delhi-delhi,Smartbike Delhi,Delhi,IN,28.6228,77.2084,,,,
602,['Nextbike GmbH'],/v2/networks/nextbike-swietochlowice,nextbike-swietochlowice,Nextbike,Świętochłowice,PL,50.2956,18.9165,,,,
603,['Nextbike GmbH'],/v2/networks/piotrkowski-rower-miejski-piotrkow-trybunalski,piotrkowski-rower-miejski-piotrkow-trybunalski,Piotrkowski Rower Miejski,Piotrków Trybunalski,PL,51.3992,19.6971,,,,
604,['Nextbike GmbH'],/v2/networks/siemianowicki-rower-miejski-siemianowice-slaskie,siemianowicki-rower-miejski-siemianowice-slaskie,Siemianowicki Rower Miejski,Siemianowice Śląskie,PL,50.3031,19.0222,,,,
605,['Nextbike GmbH'],/v2/networks/nextbike-turin,nextbike-turin,Nextbike,Turin,DE,45.0674,7.66631,,,,
606,['Nextbike GmbH'],/v2/networks/plocki-rower-miejski-prm-plock,plocki-rower-miejski-prm-plock,Płocki Rower Miejski,Płock,PL,52.5421,19.7081,,,,
607,['Nextbike GmbH'],/v2/networks/lviv-kharkiv,lviv-kharkiv,Nextbike,Kharkiv,UA,49.9795,36.2563,,,,
608,['Nextbike GmbH'],/v2/networks/ciechanowski-rower-miejski-ciechanow,ciechanowski-rower-miejski-ciechanow,Ciechanowski Rower Miejski,Ciechanów,PL,52.8763,20.6102,,,,
609,['Nextbike GmbH'],/v2/networks/lviv-odessa,lviv-odessa,Nextbike,Odessa,UA,46.463,30.7042,,,,
610,['Nextbike GmbH'],/v2/networks/otwocki-rower-miejski-otwock,otwocki-rower-miejski-otwock,Otwocki Rower Miejski,Otwock,PL,52.1083,21.2661,,,,
611,['Nextbike GmbH'],/v2/networks/tychowski-rower-miejski-tychowo,tychowski-rower-miejski-tychowo,Tychowski Rower Miejski,Tychowo,PL,53.9395,16.2306,,,,
612,['Nextbike GmbH'],/v2/networks/zielonogorski-rower-miejski-zielona-gora,zielonogorski-rower-miejski-zielona-gora,Zielonogórski Rower Miejski,Zielona Góra,PL,51.9381,15.5048,,,,
613,['Nextbike GmbH'],/v2/networks/santander-monchengladbach,santander-monchengladbach,Santander Mönchengladbach,Mönchengladbach,DE,51.1817,6.43578,,,,
614,['Nextbike GmbH'],/v2/networks/nomagobikes-celje,nomagobikes-celje,NomagoBikes,Celje,SI,46.2388,15.2693,,,,
615,['Nextbike GmbH'],/v2/networks/bilbon-bizi,bilbon-bizi,BilbonBizi,Bilbao,ES,43.2752,-2.93528,,,,
616,['Nextbike GmbH'],/v2/networks/tychowski-rower-miejski-atrakcje-turystyczne-tychowo,tychowski-rower-miejski-atrakcje-turystyczne-tychowo,Atrakcje turystyczne Tychowo,Tychowo,PL,53.9294,16.2467,,,,
617,['Nextbike GmbH'],/v2/networks/nomagobikes-lasko,nomagobikes-lasko,NomagoBikes,Laško,SI,46.1458,15.2312,,,,
618,['Nextbike GmbH'],/v2/networks/nextbike-lippstadt,nextbike-lippstadt,Nextbike,Lippstadt,DE,51.6755,8.34394,,,,
619,['Nextbike GmbH'],/v2/networks/bikekia-zilina,bikekia-zilina,BikeKia,Žilina,SK,49.2217,18.7572,,,,
620,['Nextbike GmbH'],/v2/networks/koninski-rower-miejski-konin,koninski-rower-miejski-konin,Koniński Rower Miejski,Konin,PL,52.2284,18.2553,,,,
621,['Nextbike GmbH'],/v2/networks/nextbike-vinnytsia,nextbike-vinnytsia,Nextbike,Vinnytsia,UA,49.2328,28.4625,,,,
622,['Nextbike GmbH'],/v2/networks/nextbike-bonn,nextbike-bonn,Nextbike,Bonn,DE,50.7367,7.09541,,,,
623,['Nextbike GmbH'],/v2/networks/tarnowski-rower-miejski-tarnow,tarnowski-rower-miejski-tarnow,Tarnowski Rower Miejski,Tarnów,PL,50.0113,20.9728,,,,
624,['Nextbike GmbH'],/v2/networks/kolo-marek-marki,kolo-marek-marki,Koło Marek,Marki,PL,52.3256,21.1089,,,,
625,['Nextbike GmbH'],/v2/networks/zyrardowski-rower-miejski-zyrardow,zyrardowski-rower-miejski-zyrardow,Żyrardowski Rower Miejski,Żyrardów,PL,52.0503,20.4464,,,,
626,['Nextbike GmbH'],/v2/networks/kajteroz-chorzowski-rower-miejski-chorzow,kajteroz-chorzowski-rower-miejski-chorzow,Kajteroz - Chorzowski Rower Miejski,Chorzów,PL,50.2969,18.9551,,,,
627,['Nextbike GmbH'],/v2/networks/rowerowe-lodzkie-rl-koluszki,rowerowe-lodzkie-rl-koluszki,Rowerowe Łódzkie,Koluszki,PL,51.7401,19.835,,,,
628,['Nextbike GmbH'],/v2/networks/rowerowe-lodzkie-rl-lask,rowerowe-lodzkie-rl-lask,Rowerowe Łódzkie,Łask,PL,51.5893,19.142,,,,
629,['Nextbike GmbH'],/v2/networks/rowerowe-lodzkie-rl-lowicz,rowerowe-lodzkie-rl-lowicz,Rowerowe Łódzkie,Łowicz,PL,52.1057,19.9381,,,,
630,['Nextbike GmbH'],/v2/networks/rowerowe-lodzkie-rl-pabianice,rowerowe-lodzkie-rl-pabianice,Rowerowe Łódzkie,Pabianice,PL,51.6651,19.3548,,,,
631,['Nextbike GmbH'],/v2/networks/rowerowe-lodzkie-rl-sieradz,rowerowe-lodzkie-rl-sieradz,Rowerowe Łódzkie,Sieradz,PL,51.5902,18.7382,,,,
632,['Nextbike GmbH'],/v2/networks/rowerowe-lodzkie-rl-skierniewice,rowerowe-lodzkie-rl-skierniewice,Rowerowe Łódzkie,Skierniewice,PL,51.9539,20.1469,,,,
633,['Nextbike GmbH'],/v2/networks/rowerowe-lodzkie-rl-zdunska-wola,rowerowe-lodzkie-rl-zdunska-wola,Rowerowe Łódzkie,Zduńska Wola,PL,51.6011,18.938,,,,
634,['Nextbike GmbH'],/v2/networks/rowerowe-lodzkie-rl-zgierz,rowerowe-lodzkie-rl-zgierz,Rowerowe Łódzkie,Zgierz,PL,51.8551,19.4068,,,,
635,['Nextbike GmbH'],/v2/networks/rowerowe-lodzkie-rl-kutno,rowerowe-lodzkie-rl-kutno,Rowerowe Łódzkie,Kutno,PL,52.2317,19.3564,,,,
636,['Nextbike GmbH'],/v2/networks/rowerowe-lodzkie-rl-lodz-rl,rowerowe-lodzkie-rl-lodz-rl,Rowerowe Łódzkie,Łódź,PL,51.7674,19.4575,,,,
637,['Nextbike GmbH'],/v2/networks/nextbike-odesa,nextbike-odesa,Nextbike,Odesa,UA,46.4672,30.7164,,,,
638,['Nextbike GmbH'],/v2/networks/nextbike-alvsjo,nextbike-alvsjo,Nextbike,Älvsjö,DE,59.2745,18.005,,,,
639,['Nextbike GmbH'],/v2/networks/nextbike-wittenberge,nextbike-wittenberge,Nextbike,Wittenberge,DE,52.9952,11.7517,,,,
640,['Nextbike GmbH'],/v2/networks/frelo-freiburg,frelo-freiburg,Frelo,Freiburg,DE,47.9958,7.84453,,,,
641,['Comunicare S.r.l.'],/v2/networks/bicincitta-trieste,bicincitta-trieste,BiTS,Trieste,IT,45.6495,13.7768,http://www.bicincitta.com/frmLeStazioni.aspx?ID=266,,,
642,['Nextbike GmbH'],/v2/networks/mobibike-dresden,mobibike-dresden,MOBIbike,Dresden,DE,51.0535,13.7387,,,,
643,['ЗАО «СитиБайк»'],/v2/networks/velobike-murmansk,velobike-murmansk,Velobike,Murmansk,RU,68.968,33.074,,,,
644,['ЗАО «СитиБайк»'],/v2/networks/velobike-nizhniy-novgorod,velobike-nizhniy-novgorod,Velobike,Nizhniy Novgorod,RU,56.194,44.003,,,,
